id,name,latitude,longitude
72,W 52 St & 11 Ave,40.767273,-73.99393
79,Franklin St & W Broadway,40.719116,-74.00667
82,St James Pl & Pearl St,40.711174,-74.00017
83,Atlantic Ave & Fort Greene Pl,40.683826,-73.976326
116,W 17 St & 8 Ave,40.741776,-74.001495
119,Park Ave & St Edwards St,40.69609,-73.978035
120,Lexington Ave & Classon Ave,40.686768,-73.95928
127,Barrow St & Hudson St,40.731724,-74.006744
128,MacDougal St & Prince St,40.727104,-74.00297
137,E 56 St & Madison Ave,40.761627,-73.97292
143,Clinton St & Joralemon St,40.692394,-73.99338
144,Nassau St & Navy St,40.6984,-73.98069
146,Hudson St & Reade St,40.71625,-74.00911
147,Greenwich St & Warren St,40.715424,-74.01122
150,E 2 St & Avenue C,40.720875,-73.98086
151,Cleveland Pl & Spring St,40.721817,-73.997246
152,Warren St & Church St,40.71474,-74.00911
153,E 40 St & 5 Ave,40.752064,-73.981636
157,Henry St & Atlantic Ave,40.69089,-73.996124
160,E 37 St & Lexington Ave,40.44535,-73.97846
161,LaGuardia Pl & W 3 St,40.72917,-73.9981
164,E 47 St & 2 Ave,40.75323,-73.97032
167,E 39 St & 3 Ave,40.7489,-73.977
168,W 18 St & 6 Ave,40.73971,-73.99456
173,Broadway & W 49 St,40.760647,-73.98453
174,E 25 St & 1 Ave,40.73818,-73.97739
195,Liberty St & Broadway,40.709057,-74.01044
212,W 16 St & The High Line,40.743,-74.007
216,Columbia Heights & Cranberry St,40.70038,-73.99548
217,Old Fulton St,40.70277,-73.993835
218,Gallatin Pl & Livingston St,40.690285,-73.98707
223,W 13 St & 7 Ave,40.737816,-73.99995
224,Spruce St & Nassau St,40.711464,-74.00552
225,W 14 St & The High Line,40.74195,-74.00803
228,E 48 St & 3 Ave,40.7546,-73.97188
229,Great Jones St,40.727436,-73.99379
232,Cadman Plaza E & Tillary St,40.695976,-73.99015
233,Cadman Plaza W & Pierrepont St,40.692463,-73.990524
236,St Marks Pl & 2 Ave,40.72842,-73.98714
237,E 11 St & 2 Ave,40.730473,-73.986725
238,Bank St & Washington St,40.7362,-74.00859
239,Willoughby St & Fleet St,40.691967,-73.9813
241,DeKalb Ave & S Portland Ave,40.68981,-73.97493
242,Carlton Ave & Flushing Ave,40.69779,-73.97374
243,Fulton St & Rockwell Pl,40.68798,-73.97946
244,Willoughby Ave & Hall St,40.69196,-73.96537
245,Myrtle Ave & St Edwards St,40.69327,-73.977036
247,Perry St & Bleecker St,40.735355,-74.00483
248,Laight St & Hudson St,40.721855,-74.00772
249,Harrison St & Hudson St,40.718708,-74.009
250,Lafayette St & Jersey St,40.72456,-73.99565
251,Mott St & Prince St,40.722,-73.995
252,MacDougal St & Washington Sq,40.732265,-73.99852
253,W 13 St & 5 Ave,40.73544,-73.99454
254,W 11 St & 6 Ave,40.735325,-73.998
255,NYCBS Depot - SSP,40.646767,-74.01651
257,Lispenard St & Broadway,40.71939,-74.00247
258,DeKalb Ave & Vanderbilt Ave,40.689407,-73.96886
259,South St & Whitehall St,40.70122,-74.012344
260,Broad St & Bridge St,40.70365,-74.01168
261,Johnson St & Gold St,40.694748,-73.98363
262,Washington Park,40.691784,-73.97373
263,Elizabeth St & Hester St,40.71729,-73.996376
264,Maiden Ln & Pearl St,40.707066,-74.00732
265,Stanton St & Chrystie St,40.722294,-73.99148
266,Avenue D & E 8 St,40.723682,-73.975746
267,Broadway & W 36 St,40.750977,-73.989
268,Howard St & Centre St,40.719105,-73.99973
270,Adelphi St & Myrtle Ave,40.69308,-73.97179
271,Ashland Pl & Hanson Pl,40.685226,-73.97806
274,Lafayette Ave & Fort Greene Pl,40.68692,-73.976685
275,Washington Ave & Greene Ave,40.6865,-73.96563
276,Duane St & Greenwich St,40.717487,-74.01045
278,Concord St & Bridge St,40.697666,-73.984764
279,Peck Slip & Front St,40.69987,-74.00167
280,E 10 St & 5 Ave,40.73332,-73.9951
281,Grand Army Plaza & Central Park S,40.764,-73.974
282,Kent Ave & S 11 St,40.707645,-73.968414
284,Greenwich Ave & 8 Ave,40.739017,-74.00264
285,Broadway & E 14 St,40.734547,-73.99074
289,Monroe St & Classon Ave,40.684566,-73.95881
290,2 Ave & E 58 St,40.760204,-73.96478
291,Madison St & Montgomery St,40.713127,-73.98484
293,Lafayette St & E 8 St,40.730206,-73.992
294,Washington Square E,40.730495,-73.99572
295,Pike St & E Broadway,40.714066,-73.99294
296,Division St & Bowery,40.71413,-73.99705
297,E 15 St & 3 Ave,40.734,-73.98692
298,3 Ave & Schermerhorn St,40.686832,-73.979675
300,Shevchenko Pl & E 6 St,40.728146,-73.99021
301,E 2 St & Avenue B,40.722176,-73.98369
302,Avenue D & E 3 St,40.72083,-73.97793
303,Mercer St & Spring St,40.72363,-73.9995
304,Broadway & Battery Pl,40.70463,-74.01362
305,E 58 St & 3 Ave,40.760956,-73.968
306,Cliff St & Fulton St,40.708237,-74.0053
307,Canal St & Rutgers St,40.714275,-73.9899
308,St James Pl & Oliver St,40.713078,-73.99851
309,Murray St & West St,40.714977,-74.013016
310,State St & Smith St,40.68927,-73.98913
311,Norfolk St & Broome St,40.717228,-73.98802
312,Allen St & E Houston St,40.722054,-73.98911
313,Washington Ave & Park Ave,40.696102,-73.967514
314,Cadman Plaza West & Montague St,40.69383,-73.99216
315,South St & Gouverneur Ln,40.703552,-74.0067
316,Fulton St & William St,40.70956,-74.007
317,E 6 St & Avenue B,40.724537,-73.98186
318,E 43 St & Vanderbilt Ave,40.7532,-73.97799
319,Fulton St & Broadway,40.711067,-74.009445
320,Church St & Leonard St,40.71744,-74.00584
321,Cadman Plaza E & Red Cross Pl,40.699917,-73.989716
322,Clinton St & Tillary St,40.696194,-73.99122
323,Lawrence St & Willoughby St,40.69236,-73.98632
324,DeKalb Ave & Hudson Ave,40.689888,-73.98101
325,E 19 St & 3 Ave,40.736244,-73.98474
326,E 11 St & 1 Ave,40.729538,-73.98427
327,Vesey Pl & River Terrace,40.71534,-74.01659
328,Watts St & Greenwich St,40.724056,-74.00966
329,Greenwich St & N Moore St,40.720154,-74.01037
330,Reade St & Broadway,40.714504,-74.00563
331,Pike St & Monroe St,40.71173,-73.99193
332,Cherry St,40.7122,-73.979485
334,W 20 St & 7 Ave,40.74239,-73.99726
335,Washington Pl & Broadway,40.728,-73.995
336,Sullivan St & Washington Sq,40.730476,-73.99906
337,Old Slip & Front St,40.7038,-74.008385
339,Avenue D & E 12 St,40.725807,-73.97423
340,Madison St & Clinton St,40.712692,-73.98776
341,Stanton St & Mangin St,40.717823,-73.97629
342,Columbia St & Rivington St,40.7174,-73.98016
343,Clinton Ave & Flushing Ave,40.69794,-73.96987
344,Monroe St & Bedford Ave,40.685143,-73.95381
345,W 13 St & 6 Ave,40.736492,-73.99705
346,Bank St & Hudson St,40.73653,-74.007
347,Greenwich St & W Houston St,40.72874,-74.00859
348,W Broadway & Spring St,40.72491,-74.00155
349,Rivington St & Ridge St,40.718502,-73.9833
350,Clinton St & Grand St,40.715595,-73.98703
351,Front St & Maiden Ln,40.70531,-74.00613
352,W 56 St & 6 Ave,40.763405,-73.97723
353,S Portland Ave & Hanson Pl,40.685394,-73.97431
354,Emerson Pl & Myrtle Ave,40.69363,-73.962234
355,Bayard St & Baxter St,40.716022,-73.99974
356,Bialystoker Pl & Delancey St,40.716225,-73.98261
357,E 11 St & Broadway,40.732616,-73.99158
358,Christopher St & Greenwich St,40.732914,-74.00711
359,E 47 St & Park Ave,40.755104,-73.97498
360,William St & Pine St,40.70718,-74.00887
361,Allen St & Hester St,40.716,-73.992
362,Broadway & W 37 St,40.751728,-73.989
363,West Thames St,40.708347,-74.017136
364,Lafayette Ave & Classon Ave,40.689003,-73.960236
365,Fulton St & Grand Ave,40.68223,-73.96146
366,Clinton Ave & Myrtle Ave,40.69326,-73.968895
367,E 53 St & Lexington Ave,40.75828,-73.970695
368,Carmine St & 6 Ave,40.730385,-74.00215
369,Washington Pl & 6 Ave,40.732243,-74.00027
372,Franklin Ave & Myrtle Ave,40.694527,-73.95809
373,Willoughby Ave & Walworth St,40.693317,-73.95382
375,Mercer St & Bleecker St,40.726795,-73.99695
376,John St & William St,40.708622,-74.007225
377,6 Ave & Canal St,40.72244,-74.00566
379,W 31 St & 7 Ave,40.749157,-73.9916
380,W 4 St & 7 Ave S,40.734013,-74.00294
382,University Pl & E 14 St,40.73493,-73.992004
383,Greenwich Ave & Charles St,40.735237,-74.000275
384,Fulton St & Washington Ave,40.68305,-73.965965
385,E 55 St & 2 Ave,40.757973,-73.966034
386,Centre St & Worth St,40.714947,-74.00234
387,Centre St & Chambers St,40.712734,-74.00461
388,W 26 St & 10 Ave,40.749718,-74.00295
389,Broadway & Berry St,40.710445,-73.96525
390,Duffield St & Willoughby St,40.692215,-73.98428
391,Clark St & Henry St,40.6976,-73.99345
392,Jay St & Tech Pl,40.695065,-73.98717
393,E 5 St & Avenue C,40.722992,-73.97996
394,E 9 St & Avenue C,40.725212,-73.977684
395,Bond St & Schermerhorn St,40.68807,-73.98411
396,Lefferts Pl & Franklin Ave,40.680344,-73.95577
397,Fulton St & Clermont Ave,40.68416,-73.96922
398,Atlantic Ave & Furman St,40.69165,-73.99998
399,Lafayette Ave & St James Pl,40.688515,-73.96476
400,Pitt St & Stanton St,40.71926,-73.98178
401,Allen St & Rivington St,40.719,-73.989975
402,Broadway & E 22 St,40.740345,-73.98955
403,E 2 St & 2 Ave,40.72503,-73.9907
404,9 Ave & W 14 St,40.74058,-74.00551
405,Washington St & Gansevoort St,40.739323,-74.00812
406,Hicks St & Montague St,40.69513,-73.99595
407,Henry St & Poplar St,40.70047,-73.991455
408,Market St & Cherry St,40.710762,-73.994
409,DeKalb Ave & Skillman St,40.69065,-73.95643
410,Suffolk St & Stanton St,40.720665,-73.985176
411,E 6 St & Avenue D,40.722282,-73.976685
412,Forsyth St & Canal St,40.715816,-73.994225
414,Pearl St & Anchorage Pl,40.70282,-73.987656
415,Pearl St & Hanover Square,40.70472,-74.00926
416,Cumberland St & Lafayette Ave,40.687534,-73.97265
417,Barclay St & Church St,40.712914,-74.0102
418,Front St & Gold St,40.70224,-73.982574
419,Carlton Ave & Park Ave,40.69581,-73.97356
420,Clermont Ave & Lafayette Ave,40.687645,-73.96969
421,Clermont Ave & Park Ave,40.695732,-73.9713
422,W 59 St & 10 Ave,40.77,-73.989
423,W 54 St & 9 Ave,40.76585,-73.98691
426,West St & Chambers St,40.71755,-74.01322
427,Bus Slip & State St,40.70191,-74.01427
428,E 3 St & 1 Ave,40.724678,-73.98783
430,York St & Jay St,40.701485,-73.98657
431,Hanover Pl & Livingston St,40.68865,-73.982635
432,E 7 St & Avenue A,40.72622,-73.983795
433,E 13 St & Avenue A,40.729553,-73.980576
434,9 Ave & W 18 St,40.743,-74.004
435,W 21 St & 6 Ave,40.74174,-73.994156
436,Hancock St & Bedford Ave,40.682167,-73.95399
437,Macon St & Nostrand Ave,40.680984,-73.95005
438,St Marks Pl & 1 Ave,40.72779,-73.98565
439,E 4 St & 2 Ave,40.72628,-73.98978
440,E 45 St & 3 Ave,40.752556,-73.972824
441,E 52 St & 2 Ave,40.756016,-73.967415
442,W 27 St & 7 Ave,40.746647,-73.99391
443,Bedford Ave & S 9 St,40.70853,-73.96409
444,Broadway & W 24 St,40.742355,-73.98915
445,E 10 St & Avenue A,40.72741,-73.98142
446,W 24 St & 7 Ave,40.744877,-73.9953
447,8 Ave & W 52 St,40.763706,-73.98516
448,W 37 St & 10 Ave,40.756603,-73.998
449,W 52 St & 9 Ave,40.764618,-73.98789
450,W 49 St & 8 Ave,40.761,-73.989
453,W 22 St & 8 Ave,40.74475,-73.99915
454,E 51 St & 1 Ave,40.75456,-73.96593
455,1 Ave & E 44 St,40.75002,-73.969055
456,E 53 St & Madison Ave,40.759712,-73.97402
457,Broadway & W 58 St,40.766953,-73.9817
458,11 Ave & W 27 St,40.751396,-74.005226
459,W 20 St & 11 Ave,40.746746,-74.00776
460,S 4 St & Wythe Ave,40.71286,-73.965904
461,E 20 St & 2 Ave,40.735878,-73.98205
462,W 22 St & 10 Ave,40.746918,-74.00452
463,9 Ave & W 16 St,40.742065,-74.00443
464,E 56 St & 3 Ave,40.759346,-73.9676
465,Broadway & W 41 St,40.755135,-73.98658
466,W 25 St & 6 Ave,40.743954,-73.99145
467,Dean St & 4 Ave,40.683125,-73.97895
468,Broadway & W 55 St,40.764,-73.983
469,Broadway & W 53 St,40.76344,-73.98268
470,W 20 St & 8 Ave,40.743454,-74.00004
471,Grand St & Havemeyer St,40.712868,-73.95698
472,E 32 St & Park Ave,40.745712,-73.98195
473,Rivington St & Chrystie St,40.7211,-73.99193
474,5 Ave & E 29 St,40.745167,-73.98683
475,E 15 St & Irving Pl,40.73524,-73.98759
476,E 31 St & 3 Ave,40.743942,-73.97966
477,W 41 St & 8 Ave,40.755,-73.99003
478,11 Ave & W 41 St,40.7603,-73.99884
479,9 Ave & W 45 St,40.760193,-73.99126
480,W 53 St & 10 Ave,40.766697,-73.990616
481,S 3 St & Bedford Ave,40.712605,-73.96265
482,W 15 St & 7 Ave,40.739357,-73.99932
483,E 12 St & 3 Ave,40.73223,-73.9889
484,W 44 St & 5 Ave,40.755,-73.98014
485,W 37 St & 5 Ave,40.749,-73.98339
486,Broadway & W 29 St,40.7462,-73.988556
487,E 20 St & FDR Drive,40.733143,-73.977
488,W 39 St & 9 Ave,40.75646,-73.99372
489,10 Ave & W 28 St,40.750664,-74.00177
490,8 Ave & W 33 St,40.751553,-73.995
491,E 24 St & Park Ave S,40.74,-73.98602
492,W 33 St & 7 Ave,40.7502,-73.99093
493,W 45 St & 6 Ave,40.7568,-73.98291
494,W 26 St & 8 Ave,40.74735,-73.99724
495,W 47 St & 10 Ave,40.7627,-73.99301
496,E 16 St & 5 Ave,40.737263,-73.992386
497,E 17 St & Broadway,40.737,-73.99009
498,Broadway & W 32 St,40.74855,-73.98808
499,Broadway & W 60 St,40.769154,-73.98192
500,Broadway & W 51 St,40.762287,-73.98336
501,FDR Drive & E 35 St,40.74422,-73.971214
502,Henry St & Grand St,40.71421,-73.981346
503,E 20 St & Park Ave,40.738274,-73.98752
504,1 Ave & E 15 St,40.731,-73.983
505,6 Ave & W 33 St,40.749,-73.989
507,E 25 St & 2 Ave,40.739124,-73.97974
508,W 46 St & 11 Ave,40.763412,-73.998
509,9 Ave & W 22 St,40.7455,-74.00197
510,W 51 St & 6 Ave,40.76066,-73.98042
511,E 14 St & Avenue B,40.729385,-73.97772
512,W 29 St & 9 Ave,40.750072,-73.99839
513,W 56 St & 10 Ave,40.767,-73.989
514,12 Ave & W 40 St,40.760876,-74.00278
515,W 43 St & 10 Ave,40.760094,-73.99462
516,E 47 St & 1 Ave,40.752068,-73.96784
517,E 41 St & Madison Ave,40.75149,-73.97978
518,E 39 St & 2 Ave,40.747803,-73.97344
519,E 42 St & Vanderbilt Ave,40.751873,-73.97837
520,W 52 St & 5 Ave,40.759922,-73.97649
521,8 Ave & W 31 St,40.75045,-73.99481
522,E 51 St & Lexington Ave,40.75715,-73.97208
523,W 38 St & 8 Ave,40.754665,-73.99138
524,W 43 St & 6 Ave,40.755272,-73.98317
525,W 34 St & 11 Ave,40.755,-74.00211
526,E 33 St & 5 Ave,40.747658,-73.98491
527,E 33 St & 1 Ave,40.743156,-73.97606
528,2 Ave & E 31 St,40.74291,-73.97706
529,W 42 St & 8 Ave,40.75757,-73.99098
530,11 Ave & W 59 St,40.771496,-73.99054
531,Forsyth St & Broome St,40.71894,-73.99266
532,S 5 Pl & S 4 St,40.71045,-73.96088
533,Broadway & W 38 St,40.752995,-73.98721
534,Water - Whitehall Plaza,40.70255,-74.012726
536,1 Ave & E 30 St,40.741444,-73.97536
537,Lexington Ave & E 24 St,40.740257,-73.98409
538,E 48 St & Madison Ave,40.75666,-73.977875
539,Metropolitan Ave & Bedford Ave,40.715347,-73.96024
540,Lexington Ave & E 26 St,40.741474,-73.98321
545,E 23 St & 1 Ave,40.736504,-73.978096
546,E 30 St & Park Ave S,40.74445,-73.98303
2000,Front St & Washington St,40.70255,-73.9894
2001,7 Ave & Farragut St,40.69892,-73.97993
2002,Wythe Ave & Metropolitan Ave,40.71689,-73.963196
2003,1 Ave & E 18 St,40.73381,-73.980545
2004,6 Ave & Broome St,40.7244,-74.00471
2005,Railroad Ave & Kay Ave,40.70531,-73.971
2006,Central Park S & 6 Ave,40.76591,-73.977
2008,Little West St & 1 Pl,40.705692,-74.01678
2009,Catherine St & Monroe St,40.711174,-73.996826
2010,Grand St & Greene St,40.721653,-74.00235
2012,E 27 St & 1 Ave,40.739445,-73.97681
2017,E 43 St & 2 Ave,40.750225,-73.971214
2021,W 45 St & 8 Ave,40.759293,-73.988594
2022,E 59 St & Sutton Pl,40.75849,-73.95922
2023,E 55 St & Lexington Ave,40.75968,-73.970314
2733,67 St & Erik Pl,40.62639,-74.01703
2782,5 Ave & 66 St,40.633404,-74.020386
2821,62 St & 7 Ave,40.575413,-74.023
2832,4 Ave & Shore Road Dr,40.63126,-74.02805
2861,57 St & 7 Ave,40.638382,-74.02615
2872,63 St & 5 Ave,40.63715,-74.01809
2883,3 Ave & Wakeman Pl,40.63337,-74.025566
2898,Cortelyou Rd & Stratford Rd,40.63913,-74.01594
2912,6 Ave & 60 St,40.63721,-74.01757
2923,62 St & 4 Ave,40.636955,-74.02219
2932,67 St & Ridge Blvd,40.63337,-74.03721
2951,55 St & 7 Ave,40.575413,-74.022125
2961,59 St & 5 Ave,40.63914,-74.02615
2971,64 St & 3 Ave,40.639412,-74.02364
2984,Cortelyou Rd & Argyle Rd,40.639515,-74.01603
3000,6 Ave & 55 St,40.63551,-74.015076
3002,South End Ave & Liberty St,40.711514,-74.015755
3007,Church Ave & Story St,40.638382,-74.02127
3011,59 St & 4 Ave,40.6349,-74.02307
3014,3969.TEMP (Bike The Branches - Central Branch),40.72285,-73.959114
3016,Kent Ave & N 7 St,40.720367,-73.96434
3017,NYCBS Depot - FAR,40.751484,-73.996765
3019,65 St & 2 Ave,40.64034,-74.03195
3020,NYCBS Test,40.646606,-74.01597
3022,Cortelyou Rd & E 19 St,40.637997,-74.01315
3034,Matthews Ct & Coney Island Ave,40.64135,-74.01184
3036,8D OPS 01,40.517975,-74.03137
3038,50 St & 7 Ave,40.641422,-74.020035
3039,NYCBS Depot - DYR,40.759087,-73.99375
3040,GOW Tech Shop,40.64668,-74.016266
3041,Kingston Ave & Herkimer St,40.678905,-73.94143
3042,Fulton St & Utica Ave,40.67943,-73.92989
3043,Lewis Ave & Decatur St,40.68146,-73.934906
3044,Albany Ave & Fulton St,40.68001,-73.93848
3046,E 3 St & Church Ave,40.63592,-74.02562
3047,Halsey St & Tompkins Ave,40.68237,-73.944115
3048,Putnam Ave & Nostrand Ave,40.68402,-73.94977
3049,Cambridge Pl & Gates Ave,40.68488,-73.96304
3050,55 St & 5 Ave,40.64103,-74.01753
3052,Lewis Ave & Madison St,40.686314,-73.935776
3053,Marcy Ave & Lafayette Ave,40.690083,-73.947914
3054,Greene Ave & Throop Ave,40.689495,-73.94206
3055,Greene Ave & Nostrand Ave,40.688335,-73.95091
3056,12 Ave & 36 St,40.63656,-74.01322
3057,Kosciuszko St & Tompkins Ave,40.691284,-73.945244
3058,Lewis Ave & Kosciuszko St,40.69237,-73.93706
3059,Pulaski St & Marcus Garvey Blvd,40.693398,-73.93988
3060,Willoughby Ave & Tompkins Ave,40.694256,-73.946266
3061,Throop Ave & Myrtle Ave,40.696228,-73.94371
3062,Myrtle Ave & Marcy Ave,40.695,-73.95
3063,Nostrand Ave & Myrtle Ave,40.69527,-73.95238
3064,Myrtle Ave & Lewis Ave,40.69682,-73.93757
3065,Union Ave & Wallabout St,40.700294,-73.950325
3066,Tompkins Ave & Hopkins St,40.699577,-73.94708
3067,Broadway & Whipple St,40.701664,-73.94373
3068,Humboldt St & Varet St,40.70317,-73.940636
3069,Lorimer St & Broadway,40.704117,-73.94819
3070,E 16 St & Cortelyou Rd,40.60525,-74.01186
3071,Boerum St & Broadway,40.70538,-73.94977
3072,Leonard St & Boerum St,40.705833,-73.94645
3073,Division Ave & Hooper St,40.706913,-73.954414
3074,Montrose Ave & Bushwick Ave,40.70768,-73.94016
3075,Division Ave & Marcy Ave,40.70709,-73.95797
3076,Scholes St & Manhattan Ave,40.708702,-73.94486
3077,Stagg St & Union Ave,40.70877,-73.95095
3078,Broadway & Roebling St,40.709248,-73.96063
3079,Leonard St & Grand St,40.711037,-73.94714
3080,S 4 St & Rodney St,40.70934,-73.95608
3081,Graham Ave & Grand St,40.711864,-73.94402
3082,Hope St & Union Ave,40.711674,-73.951416
3083,Bushwick Ave & Powers St,40.712475,-73.941
3084,52 St & 6 Ave,40.641087,-74.021286
3085,Roebling St & N 4 St,40.71469,-73.95739
3086,Graham Ave & Conselyea St,40.71514,-73.9445
3087,Cortelyou Rd & E 34 St,40.643906,-73.987335
3088,Union Ave & Jackson St,40.716076,-73.95203
3089,Leonard St & Meeker Ave,40.71732,-73.948204
3090,Church Ave & McDonald Ave,40.641087,-74.01202
3091,Frost St & Meeker St,40.71764,-73.94882
3092,Berry St & N 8 St,40.71901,-73.95853
3093,57 St & 4 Ave,40.63534,-74.02531
3094,Graham Ave & Withers St,40.71698,-73.94486
3095,Graham Ave & Herbert St,40.71929,-73.94501
3096,Union Ave & N 12 St,40.71924,-73.95242
3097,N Henry St & Richardson St,40.719215,-73.942444
3098,Leonard St & Bayard St,40.71928,-73.94861
3099,Leonard St & Manhattan Ave,40.721523,-73.94898
3100,Nassau Ave & Newell St,40.72481,-73.947525
3101,N 12 St & Bedford Ave,40.7208,-73.95485
3102,Driggs Ave & Lorimer St,40.72179,-73.95042
3103,N 11 St & Wythe Ave,40.72153,-73.957825
3104,Kent Ave & N 7 St,40.720577,-73.9615
3105,N 15 St & Wythe Ave,40.724056,-73.955734
3106,Driggs Ave & N Henry St,40.72325,-73.94308
3107,Bedford Ave & Nassau Ave,40.723118,-73.952126
3108,Nassau Ave & Russell St,40.72557,-73.94434
3109,Banker St & Meserole Ave,40.72606,-73.95621
3110,Meserole Ave & Manhattan Ave,40.727085,-73.953
3111,Norman Ave & Leonard St,40.72585,-73.950645
3112,Milton St & Franklin St,40.72906,-73.95779
3113,Greenpoint Ave & Manhattan Ave,40.64263,-74.01368
3114,India St & East River,40.73165,-73.96162
3115,India St & Manhattan Ave,40.732323,-73.955086
3116,Huron St & Franklin St,40.73266,-73.95826
3117,46 St & 7 Ave,40.638306,-74.02615
3118,McGuinness Blvd & Eagle St,40.73555,-73.95284
3119,Vernon Blvd & 50 Ave,40.74233,-73.95412
3120,Center Blvd & Borden Ave,40.74161,-73.96044
3121,Cortelyou Rd & Albany Ave,40.644554,-73.9917
3122,48 Ave & 5 St,40.74436,-73.95587
3123,31 St & Thomson Ave,40.744698,-73.9354
3124,46 Ave & 5 St,40.74731,-73.95451
3125,45 Rd & 11 St,40.605267,-74.022125
3126,44 Dr & Jackson Ave,40.74718,-73.94326
3127,9 St & 44 Rd,40.74966,-73.9521
3128,21 St & 43 Ave,40.750526,-73.945946
3129,53 St & 5 Ave,40.636955,-74.02219
3130,21 St & Queens Plaza North,40.753258,-73.94336
3131,E 68 St & 3 Ave,40.767128,-73.96225
3132,Beverley Rd & Nostrand Ave,40.642643,-74.011925
3133,E 67 St & Lexington Ave,40.76734,-73.964935
3134,3 Ave & E 62 St,40.763126,-73.96527
3135,Chester Ave & 12 Ave,40.64371,-74.01194
3136,5 Ave & E 63 St,40.76637,-73.97152
3137,5 Ave & E 73 St,40.772827,-73.96685
3138,58 St & 2 Ave,40.63931,-74.02675
3139,E 72 St & Park Ave,40.771183,-73.964325
3140,1 Ave & E 78 St,40.642494,-74.0132
3141,1 Ave & E 68 St,40.765007,-73.95818
3142,1 Ave & E 62 St,40.761,-73.962
3143,5 Ave & E 78 St,40.77632,-73.96427
3144,E 81 St & Park Ave,40.776775,-73.95901
3145,E 84 St & Park Ave,40.778625,-73.95772
3146,E 81 St & 3 Ave,40.77573,-73.95675
3147,E 85 St & 3 Ave,40.77801,-73.95407
3148,E 17 St & Beverley Rd,40.64032,-74.01723
3149,E 82 St & 2 Ave,40.775177,-73.95325
3150,E 85 St & York Ave,40.775368,-73.94804
3151,E 81 St & York Ave,40.77284,-73.94989
3152,3 Ave & E 71 St,40.768738,-73.9612
3153,E 71 St & 2 Ave,40.768177,-73.9591
3154,E 77 St & 3 Ave,40.773144,-73.958565
3155,Lexington Ave & E 63 St,40.64493,-74.00441
3156,E 72 St & York Ave,40.76664,-73.95348
3157,East End Ave & E 86 St,40.64388,-74.00572
3158,W 63 St & Broadway,40.771637,-73.98261
3159,W 67 St & Broadway,40.774925,-73.982666
3160,Central Park West & W 76 St,40.77897,-73.97375
3161,46 St & 6 Ave,40.639576,-74.01735
3162,W 78 St & Broadway,40.7834,-73.980934
3163,Central Park West & W 68 St,40.773407,-73.97783
3164,Brooklyn Ave & Beverley Rd,40.64534,-73.97898
3165,Central Park West & W 72 St,40.775753,-73.976204
3166,Albemarle Rd & McDonald Ave,40.637466,-74.02562
3167,Amsterdam Ave & W 73 St,40.779667,-73.980934
3168,Central Park West & W 85 St,40.784725,-73.96962
3169,53 St & 4 Ave,40.575413,-74.021286
3170,W 84 St & Columbus Ave,40.785,-73.97283
3171,Amsterdam Ave & W 82 St,40.785248,-73.97668
3172,Tilden Ave & Nostrand Ave,40.64646,-74.01187
3173,Riverside Blvd & W 67 St,40.777508,-73.988884
3175,W 70 St & Amsterdam Ave,40.776,-73.983
3176,W 64 St & West End Ave,40.77453,-73.98754
3177,W 84 St & Broadway,40.786797,-73.97711
3178,57 St & 1 Ave,40.638184,-74.02434
3179,Park Ave & Marcus Garvey Blvd,40.698616,-73.941345
3180,Albemarle Rd & E 21 St,40.64331,-74.01328
3181,Soissons Landing,40.692608,-74.016396
3182,Yankee Ferry Terminal,40.68693,-74.01697
3183,Exchange Place,40.716248,-74.03346
3184,Paulus Hook,40.714146,-74.033554
3185,City Hall,40.71773,-74.043846
3186,Grove St PATH,40.71928,-74.04311
3187,Beverley Rd & E 49 St,40.642643,-74.03805
3188,NJCU,40.64202,-74.085846
3191,Union St,40.718212,-74.08364
3192,7 Ave & 41 St,40.63479,-74.0557
3195,Sip Ave,40.730743,-74.06391
3196,Riverview Park,40.74432,-74.04399
3197,Harborsid,40.719254,-74.04472
3198,Heights Elevator,40.748535,-74.04044
3199,Caton Ave & E 7 St,40.575413,-74.032104
3201,Dey St,40.737713,-74.06692
3202,48 St & 5 Ave,40.636955,-74.03376
3203,Hamilton Park,40.727596,-74.04425
3205,Brooklyn Ave & Tilden Ave,40.64539,-74.04964
3206,Hilltop,40.73117,-74.05757
3208,Dahill Rd & 12 Ave,40.645164,-74.01266
3209,Brunswick St,40.72418,-74.05066
3210,Pershing Field,40.742676,-74.05179
3211,53 St & 2 Ave,40.63927,-74.0463
3212,Christ Hospital,40.734787,-74.050446
3213,Van Vorst Park,40.71849,-74.04773
3214,Essex Light Rail,40.646076,-74.03648
3215,JSQ Don't Use,0.0,0.0
3219,NYCBS Depot - STY,40.729195,-73.976654
3220,5 Corners Library,40.641396,-74.0595
3221,47 Ave & 31 St,40.743,-73.93561
3222,Hanson Pl & St Felix St,40.685158,-73.97711
3223,E 55 St & 3 Ave,40.635815,-74.011505
3224,W 13 St & Hudson St,40.739975,-74.00514
3225,Baldwin at Montgomery,40.72366,-74.06419
3226,W 82 St & Central Park West,40.78275,-73.97137
3229,E 48 St & Tilden Ave,40.647648,-73.978806
3230,Caton Ave & E 10 St,40.639484,-74.02667
3231,E 67 St & Park Ave,40.7678,-73.96592
3232,Bond St & Fulton St,40.68962,-73.98304
3233,44 St & 6 Ave,40.60814,-74.02615
3234,E 40 St & Madison Ave,40.751595,-73.98043
3235,E 41 St & Madison Ave,40.752167,-73.97992
3236,PABT Valet,40.758984,-73.9938
3237,21 St & 41 Ave,40.753834,-73.94268
3238,E 80 St & 2 Ave,40.773914,-73.9544
3239,Bressler,40.646538,-74.01659
3240,Fort Hamilton Pkwy & E 5 St,0.0,-74.01537
3241,Monroe St & Tompkins Ave,40.686203,-73.944695
3242,Schermerhorn St & Court St,40.69103,-73.99184
3243,47 St & 3 Ave,40.642357,-74.01354
3244,University Pl & E 8 St,40.731438,-73.9949
3245,"Industry City, Building 1 Basement",40.64668,-74.016304
3246,Montague St & Clinton St,40.64829,-73.9966
3247,SSP - Basement,0.0,0.0
3248,LPI Facility,0.0,0.0
3249,Verona Pl & Fulton St,40.680355,-73.94768
3250,58th St Depot,40.71691,-73.98384
3252,Bike The Branches - Red Hook Branch,40.67535,-74.01002
3253,52 St & 1 Ave,40.64874,-74.02039
3254,Soissons Landing,40.692318,-74.01486
3255,8 Ave & W 31 St,40.750584,-73.99468
3256,Bedford Ave & Albemarle Rd,40.647778,-74.0113
3257,Adventures NYC,40.77377,-73.97117
3258,W 27 St & 10 Ave,40.750183,-74.00218
3259,9 Ave & W 28 St,40.74937,-73.99924
3260,Mercer St & Bleecker St,40.727062,-73.99662
3263,Cooper Square & Astor Pl,40.640472,-74.01596
3264,E 61 St & Park Ave,40.76421,-73.9691
3265,E 2 St & 2 Ave,40.724564,-73.98944
3266,7 Ave & 40 St,40.638306,-74.01885
3267,Morris Canal,40.712418,-74.03853
3268,Lafayette Park,40.713463,-74.06286
3270,Jersey & 6th St,40.72529,-74.04557
3272,E 8 St & Caton Ave,40.6475,-74.04595
3273,Manila & 1st,40.72165,-74.042885
3275,45 St & 4 Ave,40.638386,-74.03892
3276,Marin Light Rail,40.714584,-74.042984
3277,Communipaw & Berry Lane,40.71436,-74.06661
3278,Brooklyn Ave & Snyder Ave,40.644436,-74.04879
3279,Dixon Mills,40.72163,-74.049965
3280,Astor Place,40.637466,-74.07126
3281,Leonard Gordon Park,40.74591,-74.057274
3282,5 Ave & E 88 St,40.78307,-73.95939
3283,48 St & 2 Ave,40.63479,-74.03878
3284,E 88 St & Park Ave,40.78141,-73.955956
3285,W 87 St  & Amsterdam Ave,40.78839,-73.9747
3286,E 89 St & 3 Ave,40.647762,-74.00919
3287,W 87 St & West End Ave,40.789623,-73.97757
3288,E 88 St & 1 Ave,40.7783,-73.948814
3289,W 90 St & Amsterdam Ave,40.79018,-73.97289
3290,E 89 St & York Ave,40.777946,-73.94604
3291,Riverside Dr & W 91 St,40.793373,-73.97685
3292,5 Ave & E 93 St,40.785786,-73.95748
3293,W 92 St & Broadway,40.7921,-73.9739
3294,E 21 St & Church Ave,40.639458,-74.01107
3295,Central Park W & W 96 St,40.79127,-73.964836
3296,E 93 St & 2 Ave,40.782455,-73.94892
3297,6 St & 7 Ave,40.668663,-73.97988
3298,Warren St & Court St,40.68637,-73.993835
3299,E 98 St & Park Ave,40.78813,-73.95206
3300,E 49 St & Church Ave,40.64885,-73.9917
3301,Columbus Ave & W 95 St,40.791954,-73.96809
3302,Columbus Ave & W 103 St,40.796936,-73.96434
3303,Butler St & Court St,40.62465,-74.01368
3304,6 Ave & 9 St,40.668125,-73.98378
3305,E 91 St & 2 Ave,40.781124,-73.95
3306,10 St & 7 Ave,40.641525,-74.02615
3307,West End Ave & W 94 St,40.794167,-73.97412
3308,Kane St & Clinton St,40.686176,-73.99645
3309,Church Ave & E 42 St,40.640472,-74.00423
3310,14 St & 7 Ave,40.66378,-73.98397
3311,Columbia St & Kane St,40.68763,-74.001625
3312,1 Ave & E 94 St,40.650707,-73.99854
3313,6 Ave & 12 St,40.666317,-73.98546
3314,W 95 St & Broadway,40.79377,-73.971886
3315,44 St & 3 Ave,40.642605,-74.01163
3316,W 104 St & Amsterdam Ave,40.798992,-73.96622
3317,10 St & 5 Ave,40.66863,-73.987
3318,2 Ave & E 96 St,40.60814,-73.99453
3319,14 St & 5 Ave,40.666286,-73.98895
3320,Central Park West & W 100 St,40.793392,-73.963554
3321,Clinton St & Union St,40.683117,-73.997856
3322,12 St & 4 Ave,40.668602,-73.99044
3323,W 106 St & Central Park West,40.798187,-73.960594
3324,3 Ave & 14 St,40.668545,-73.99333
3325,E 95 St & 3 Ave,40.784904,-73.9505
3326,Clinton St & Centre St,40.67434,-74.001945
3327,3 Ave & E 100 St,40.60814,-74.0055
3328,W 100 St & Manhattan Ave,40.795,-73.9645
3329,Degraw St & Smith St,40.682915,-73.99318
3330,Henry St & Bay St,40.672504,-74.004944
3331,Riverside Dr & W 104 St,40.801342,-73.971146
3332,Degraw St & Hoyt St,40.68199,-73.99079
3333,Columbia St & Lorraine St,40.674706,-74.00756
3335,Caton Ave & St. Pauls Pl,40.650898,-74.00023
3336,E 97 St & Madison Ave,40.7878,-73.95356
3337,Dwight St & Van Dyke St,40.673637,-74.011955
3338,2 Ave & E 99 St,40.78626,-73.945526
3339,Berkeley Pl & 6 Ave,40.67653,-73.97847
3340,Wolcott St & Dwight St,40.675327,-74.01007
3341,Central Park West & W 102 St,40.651093,-73.96186
3342,Pioneer St & Richards St,40.677776,-74.00946
3343,W 107 St & Columbus Ave,40.799755,-73.96211
3344,Park Cir & East Dr,40.637466,-74.02562
3345,Madison Ave & E 99 St,40.789486,-73.95243
3346,Berkeley Pl & 7 Ave,40.675148,-73.975235
3347,41 St & 4 Ave,40.63538,-74.025154
3348,Coffey St & Conover St,40.677235,-74.01566
3349,Grand Army Plaza & Plaza St West,40.672966,-73.97088
3350,E 38 St & Church Ave,40.65076,-73.971
3351,E 102 St & 1 Ave,40.786995,-73.94165
3352,Sigourney St & Columbia St,40.672672,-74.0088
3353,Greenwood Ave & E 4 St,40.648415,-74.01613
3354,3 St & Prospect Park West,40.668133,-73.97364
3355,E 66 St & Madison Ave,40.76801,-73.96845
3356,2 Ave & 44 St,40.621002,-74.04153
3357,W 106 St & Amsterdam Ave,40.800835,-73.966446
3358,Garfield Pl & 8 Ave,40.671196,-73.97484
3359,Church Ave & Nostrand Ave,40.642708,-74.01884
3360,Amsterdam Ave & W 79 St,40.78294,-73.97865
3361,Carroll St & 6 Ave,40.674088,-73.97873
3362,Madison Ave & E 82 St,40.77813,-73.96069
3363,E 102 St & Park Ave,40.79048,-73.95033
3364,Carroll St & 5 Ave,40.675163,-73.98148
3365,3 St & 7 Ave,40.670383,-73.97839
3366,West End Ave & W 107 St,40.802116,-73.96818
3367,5 Ave & E 103 St,40.791,-73.953
3368,5 Ave & 3 St,40.63482,-74.02562
3369,E 82 St & East End Ave,40.77246,-73.94682
3370,78 St & 2 Ave,40.772797,-73.95578
3371,4 Ave & 2 St,40.674614,-73.98501
3372,E 74 St & 1 Ave,40.768974,-73.95483
3373,3 St & 3 Ave,40.653614,-73.987755
3374,Central Park North & Adam Clayton Powell Blvd,40.799484,-73.956
3375,3 Ave & E 72 St,40.769943,-73.96061
3376,E 65 St & 2 Ave,40.637466,-74.02562
3377,Carroll St & Bond St,40.67861,-73.99037
3378,E 76 St & Park Ave,40.77376,-73.96222
3379,5 Ave & 37 St,40.63602,-74.026024
3381,3 St & Hoyt St,40.67773,-73.993645
3382,Carroll St & Smith St,40.64678,-73.995
3383,Cathedral Pkwy & Broadway,40.804214,-73.96699
3384,Smith St & 3 St,40.678722,-73.995995
3385,2 Ave & E 105 St,40.59739,-74.02615
3386,1 Pl & Clinton St,40.680958,-73.999054
3387,E 106 St & Madison Ave,40.793434,-73.94945
3388,40 St & 3 Ave,40.647827,-74.01236
3389,Carroll St & Columbia St,40.683044,-74.00349
3390,E 109 St & 3 Ave,40.793297,-73.94321
3391,E 106 St & 1 Ave,40.652855,-73.98646
3392,Commerce St & Van Brunt St,40.681213,-74.008606
3393,Richards St & Delavan St,40.679432,-74.00785
3394,Columbia St & W 9 St,40.61317,-74.01184
3395,Henry St & W 9 St,40.676373,-74.00325
3396,Clinton St & 4 Place,40.678356,-74.000145
3397,Court St & Nelson St,40.676395,-73.998695
3398,Smith St & 9 St,40.674694,-73.997856
3399,7 St & 3 Ave,40.672604,-73.98983
3400,E 110 St & Madison Ave,40.65315,-74.00791
3401,2 Ave & 9 St,40.67248,-73.99332
3402,Court St & State St,40.69024,-73.99203
3403,4 Ave & 9 St,40.670513,-73.98877
3404,7 St & 5 Ave,40.670494,-73.98542
3405,5 St & 6 Ave,40.670483,-73.982086
3407,Union St & Nevins St,40.679096,-73.987656
3408,Congress St & Clinton St,40.652027,-74.01588
3409,Bergen St & Smith St,40.686745,-73.99063
3410,Dean St & Hoyt St,40.686443,-73.987595
3411,Bond St & Bergen St,40.684967,-73.986206
3412,Pacific St & Nevins St,40.685375,-73.983025
3413,Wyckoff St & 3 Ave,40.682755,-73.98258
3414,Bergen St & Flatbush Ave,40.680946,-73.97567
3415,Prospect Pl & 6 Ave,40.67933,-73.9752
3416,7 Ave & Park Pl,40.677616,-73.97324
3417,Baltic St & 5 Ave,40.679577,-73.978546
3418,Plaza St West & Flatbush Ave,40.675022,-73.971115
3419,Douglass St & 4 Ave,40.67928,-73.98154
3420,36 St & 4 Ave,40.63862,-74.020035
3421,Hoyt St & Warren St,40.684357,-73.98901
3422,Columbia St & Degraw St,40.68593,-74.002426
3423,Clarkson Ave & E 40 St,40.60814,-73.99548
3424,E 106 St & Lexington Ave,40.791977,-73.94599
3425,2 Ave  & E 104 St,40.78921,-73.94371
3426,JCBS Depot,40.642353,-74.0686
3427,Lafayette St & Jersey St,40.724304,-73.99601
3428,2 Ave & 43 St,40.63926,-74.02684
3429,Hanson Pl & Ashland Pl,40.685066,-73.977905
3430,Richardson St & N Henry St,40.719078,-73.94224
3431,E 35 St & 3 Ave,40.644985,-74.0042
3432,Bike in Movie Night | Prospect Park Bandshell,40.662987,-73.99464
3434,W 88 St & West End Ave,40.790253,-73.97718
3435,Grand St & Elizabeth St,40.718822,-73.99596
3436,Greenwich St & Hubert St,40.721317,-74.01006
3437,Riverside Dr & W 91 St,40.793137,-73.977005
3438,E 76 St & 3 Ave,40.772247,-73.95842
3439,Bedford Ave & Clarkson Ave,40.649765,-74.013695
3440,Fulton St & Adams St,40.692417,-73.989494
3441,10 Hudson Yards,40.752956,-74.00264
3443,W 52 St & 6 Ave,40.76133,-73.97982
3445,Riverside Dr & W 89 St,40.791813,-73.9786
3446,NYCBS Depot - STY - Valet Scan,0.0,0.0
3447,E 71 St & 1 Ave,40.767033,-73.95623
3448,Parkside Ave & Ocean Ave,40.637466,-74.02562
3449,Eckford St & Engert Ave,40.721462,-73.948006
3450,Penn Station Valet - Valet Scan,40.75128,-73.996925
3451,34 St & 5 Ave,40.64531,-74.01183
3452,Bayard St & Leonard St,40.719154,-73.94885
3453,Devoe St & Lorimer St,40.713352,-73.949104
3454,Clarkson Ave & Troy Ave,40.65612,-73.9933
3455,Schermerhorn St & 3 Ave,40.68681,-73.98036
3456,Jackson St & Leonard St,40.71638,-73.94821
3457,E 58 St & Madison Ave,40.646267,-74.01324
3458,W 55 St & 6 Ave,40.763092,-73.97835
3459,E 53 St & 3 Ave,40.757633,-73.96931
3460,2 Av & 37 St,40.636047,-74.02603
3461,Murray St & Greenwich St,40.71485,-74.01122
3462,E 44 St & 2 Ave,40.751183,-73.97139
3463,Clarkson Ave & E 37 St,40.65092,-74.01218
3464,W 37 St & Broadway,40.75227,-73.98771
3466,W 45 St & 6 Ave,40.756687,-73.982574
3467,W Broadway & Spring St,40.724945,-74.001656
3468,NYCBS Depot - STY - Garage 4,40.73038,-73.97475
3469,India St & West St,40.731815,-73.95995
3470,Expansion Tech Station,40.669804,-73.9949
3471,NYCBS Depot - GOW Annex,40.668884,-73.99481
3472,Clarkson Ave & Nostrand Ave,40.60814,-74.01594
3474,6 Ave & Spring St,40.725254,-74.00412
3476,Norman Ave & Leonard St,40.72577,-73.95074
3477,39 St & 2 Ave - Citi Bike HQ at Industry City,40.6554,-74.01063
3478,2 Ave & 36 St - Citi Bike HQ at Industry City,40.65709,-74.008705
3479,Picnic Point,40.685127,-74.02535
3480,Parkside Ave & Flatbush Ave,0.0,-74.025154
3481,York St,40.71649,-74.04105
3483,Montgomery St,40.71942,-74.05099
3485,NYCBS Depot - RIS,40.72521,-73.974724
3486,Clarkson Ave & Utica Ave,40.646286,-73.99923
3487,Prototype Lab Motivate Headquarters,40.656597,-74.00849
3488,8D QC Station 01,45.506363,-73.569466
3489,Gold St & Frankfort St,40.7107,-74.00354
3490,E 116 St & 2 Ave,40.79688,-73.93726
3491,E 118 St & 1 Ave,40.79747,-73.93504
3492,34 St & 4 Ave,40.639782,-74.01897
3493,E 118 St & 3 Ave,40.799137,-73.93891
3494,E 115 St & Lexington Ave,40.797913,-73.9423
3495,E 114 St & 1 Ave,40.6547,-73.99768
3496,1 Ave & E 110 St,40.792328,-73.9383
3497,Pleasant Ave & E 116 St,40.794987,-73.933334
3498,Pleasant Ave & E 120 St,40.62737,-74.026924
3499,2 Ave & E 122 St,40.80067,-73.9349
3500,E 115 St & Madison Ave,40.798946,-73.94485
3501,39 St & 2 Ave,40.6554,-74.01104
3502,Lexington Ave & E 111 St,40.795414,-73.94412
3503,Madison Ave & E 120 St,40.80295,-73.942955
3504,E 123 St & Lexington Ave,40.640472,-74.01016
3505,Lexington Ave & E 127 St,40.805725,-73.936325
3506,Lexington Ave & E 120 St,40.801308,-73.93982
3507,Park Ave & E 124 St,40.642353,-74.01688
3508,St Nicholas Ave & Manhattan Ave,40.809727,-73.95315
3509,Lenox Ave & W 115 St,40.801193,-73.95007
3510,Adam Clayton Powell Blvd & W 123 St,40.80783,-73.94937
3511,Adam Clayton Powell Blvd & W 115 St,40.802536,-73.95324
3512,27 Ave & 4 St,40.653515,-74.01167
3513,21 St & Hoyt Ave S,40.774647,-73.923706
3514,Astoria Park S & Shore Blvd,40.7767,-73.92763
3515,24 Ave & 26 St,40.652817,-74.01596
3516,31 St & Astoria Blvd,40.769917,-73.9184
3517,31 St & Hoyt Ave N,40.771152,-73.91701
3518,Lenox Ave & W 126 St,40.80844,-73.945206
3520,Adam Clayton Powell Blvd & W 118 St,40.638325,-74.01675
3521,Lenox Ave & W 111 St,40.798786,-73.9523
3522,37 St & 24 Ave,40.77015,-73.912094
3523,24 Ave & 29 St,40.65615,-74.01315
3524,19 St & 24 Ave,40.777454,-73.92254
3525,23 Ave & 27 St,40.776165,-73.91531
3526,31 St & 23 Ave,40.657898,-73.99962
3527,5 Ave & E 126 St,40.80698,-73.94175
3528,Steinway St & 23 Ave,40.771393,-73.907745
3529,Lenox Ave & W 130 St,40.81079,-73.94307
3530,Crescent St & Ditmars Blvd,40.778717,-73.914566
3531,Frederick Douglass Blvd & W 129 St,40.81255,-73.94923
3532,2 Ave & 32 St,40.648296,-74.01324
3533,St. Nicholas Ave & W 126 St,40.81143,-73.95188
3534,Frederick Douglass Blvd & W 117 St,40.80516,-73.95469
3535,Albany Ave & Winthrop St,40.642494,-74.0132
3536,W 116 St & Broadway,40.8082,-73.9641
3537,Carlton Ave & Dean St,40.680973,-73.97101
3538,11 Ave & Prospect Ave,40.644497,-74.02615
3539,W 116 St & Amsterdam Ave,40.80676,-73.96071
3540,Morningside Ave & W 123 St,40.81,-73.955154
3541,Amsterdam Ave & W 125 St,40.81336,-73.95646
3542,Amsterdam Ave & W 119 St,40.808624,-73.95962
3543,Morningside Dr & Amsterdam Ave,40.810284,-73.95737
3544,Underhill Ave & Pacific St,40.65564,-74.005714
3545,Broadway & W 122 St,40.812057,-73.96126
3546,Pacific St & Classon Ave,40.679195,-73.95879
3547,19 St & 8 Ave,40.656612,-74.01371
3548,Pacific St & Bedford Ave,40.677776,-73.952934
3549,Grand Ave & Bergen St,40.678043,-73.96241
3550,Convent Ave & W 129 St,40.81413,-73.953
3551,3 Ave & E 112 St,40.79551,-73.941605
3552,Bedford Ave & Fenimore St,40.64591,-74.016624
3553,Frederick Douglass Blvd & W 112 St,40.801693,-73.957146
3554,Vernon Blvd & 41 Rd,40.75524,-73.94857
3555,24 St & 5 Ave,40.64274,-74.01183
3556,24 St & 41 Ave,40.75271,-73.93974
3557,40 Ave & 9 St,40.75742,-73.94513
3558,Bergen St & Vanderbilt Ave,40.67944,-73.96804
3559,21 St & 38 Ave,40.757633,-73.939125
3560,28 St & 38 Ave,40.754875,-73.934326
3561,37 Ave & 35 St,40.75311,-73.92799
3562,Classon Ave & St Marks Ave,40.67652,-73.95961
3563,28 St & 36 Ave,40.757187,-73.93272
3564,21 St & 36 Ave,40.64528,-74.01285
3565,36 Ave & 10 St,40.761436,-73.941124
3566,Crescent St & 35 Ave,40.75963,-73.932144
3567,11 St & 35 Ave,40.659653,-74.01178
3568,34 St & 35 Ave,40.75693,-73.92622
3569,Franklin Ave & St Marks Ave,40.67583,-73.95617
3570,35 Ave & 37 St,40.755733,-73.92366
3571,Bedford Ave & Bergen St,40.67637,-73.95292
3572,34 Ave & 38 St,40.756912,-73.92163
3573,35 St & 34 Ave,40.758057,-73.92428
3574,Prospect Pl & Underhill Ave,40.676968,-73.96579
3575,Crescent St & 34 Ave,40.76108,-73.930565
3576,Park Pl & Vanderbilt Ave,40.64032,-74.002754
3577,34 Ave & 21 St,40.762814,-73.93429
3578,Park Pl & Franklin Ave,40.67418,-73.9565
3579,Sterling Pl & Bedford Ave,40.62465,-74.02562
3580,St Johns Pl & Washington Ave,40.673725,-73.96316
3581,Underhill Ave & Lincoln Pl,40.67401,-73.96715
3582,Lincoln Pl & Classon Ave,40.67217,-73.9609
3583,Eastern Pkwy & Washington Ave,40.67165,-73.96311
3584,Eastern Pkwy & Franklin Ave,40.670776,-73.95768
3585,Nostrand Ave & Rutland Rd,40.638306,-74.01382
3586,34 Ave & 13 St,40.763874,-73.936485
3587,Carroll St & Washington Ave,40.668674,-73.961815
3588,7 Ave & 20 St,40.638206,-74.01596
3589,Broadway & 12 St,40.7668,-73.93478
3590,Carroll St & Franklin Ave,40.667942,-73.9588
3591,21 St & 31 Dr,40.7659,-73.93082
3592,Crescent St & Broadway,40.76336,-73.92865
3593,31 St & Broadway,40.641663,-74.016624
3594,Montgomery St & Franklin Ave OLD,40.666164,-73.95935
3595,35 St & Broadway,40.760338,-73.92224
3596,4 Ave & 26 St,40.65001,-74.00926
3597,43 St & Broadway,40.75773,-73.91663
3598,Newton Rd & 44 St,40.75957,-73.91427
3599,Franklin Ave & Empire Blvd,40.65242,-74.00266
3601,Sterling St & Bedford Ave,40.662704,-73.95691
3602,31 Ave & 34 St,40.763153,-73.92083
3603,31 Ave & 30 St,40.7647,-73.924034
3604,Rogers Ave & Sterling St,40.663063,-73.95387
3605,31 Ave & Crescent St,40.765835,-73.926544
3606,49 Ave & 21 St,40.74252,-73.94885
3607,31 Ave & 14 St,40.7682,-73.93227
3608,5 St & 51 Ave,40.645123,-74.00686
3609,Vernon Blvd & 31 Ave,40.76925,-73.93545
3610,Vernon Blvd & 30 Rd,40.770844,-73.93417
3611,Prospect Park SW & 10 Ave,40.644703,-74.01596
3612,30 Ave & 21 St,40.770374,-73.928604
3613,Center Blvd & 48 Ave,40.745037,-73.95754
3614,Crescent St & 30 Ave,40.768692,-73.92496
3615,44 Dr & 21 St,40.748,-73.94609
3616,Steinway St & 28 Ave,40.765625,-73.913666
3617,28 Ave & 35 St,40.65545,-74.01189
3618,27 St & Hunter St,40.7485,-73.94128
3619,Newtown Ave & 23 St,40.771362,-73.924614
3620,11 St & 43 Ave,40.64042,-74.01277
3621,27 Ave & 9 St,40.773983,-73.930916
3622,E 128 St & Madison Ave,40.80756,-73.93918
3623,W 120 St & Claremont Ave,40.81095,-73.9634
3625,28 St & 40 Ave,40.59739,-74.017456
3628,6 Ave & 21 St,40.63602,-74.02671
3629,Adam Clayton Powell Blvd & W 126 St,40.809494,-73.94776
3630,Frederick Douglass Blvd & W 115 St,40.803,-73.956
3631,Crown St & Bedford Ave,40.66656,-73.95674
3632,E 12 St & Avenue B,40.72805,-73.97881
3633,333 Johnson TEST 1,0.0,-74.016624
3635,W 36 St & 9 Ave,40.754623,-73.99517
3636,Expansion Warehouse 333 Johnson Ave,40.707733,-73.934525
3637,Fulton St & Waverly Ave,40.68324,-73.965996
3638,Washington St,40.724293,-74.035484
3639,Harborside,40.65242,-74.03423
3640,Journal Square,40.73367,-74.0625
3641,Broadway & W 25 St,40.74287,-73.98919
3642,E 98 St & Lexington Ave,40.787285,-73.95012
3643,E 41 St & 5 Ave,40.752724,-73.98124
3644,Van Dyke St & Van Brunt St,40.675816,-74.014885
3645,Bike Mechanics at Riis Room B,40.672333,-73.99706
3646,35 Ave & 10 St,40.763153,-73.93986
3647,48 Ave & 30 Pl,40.741283,-73.937256
3648,Flushing Ave & Vanderbilt Ave,40.642353,-74.01354
3649,W 129 St & Convent Ave,40.814396,-73.95325
3650,8D Mobile 01,45.50585,-73.56911
3651,Bike Mechanics at Riis Room A,40.636047,-74.02562
3652,NYCBS Depot - 3AV,40.67013,-73.99231
3653,31 St & 35 Ave,40.758205,-73.92832
3654,31 St & Northern Blvd,40.75187,-73.933495
3656,E 2 St & Avenue A,40.722,-73.986
3657,Sterling St & Nostrand Ave,40.644436,-74.00503
3658,W 18 St & 9 Ave,40.743534,-74.00368
3659,W 17 St & 9 Ave,40.74295,-74.004135
3660,7 Ave & 17 St,40.64245,-74.01318
3661,Montgomery St & Franklin Ave,40.66644,-73.960556
3662,31 Ave & Steinway St,40.761295,-73.916916
3663,Sterling Pl & 7 Ave,40.677166,-73.97383
3664,North Moore St & Greenwich St,40.720196,-74.0103
3665,Sterling St & Bedford Ave,40.641182,-74.01747
3666,32 St & 30 Ave,40.766426,-73.92063
3668,21 St & 4 Ave,40.649364,-74.020035
3669,Henry St & W 9 St,40.676304,-74.00314
3671,E 81 St & 2 Ave,40.77478,-73.95428
3672,Apache,40.669765,-73.99474
3673,Dean St & Franklin Ave,40.677593,-73.955635
3674,Jay St & York St,40.701405,-73.986725
3675,3 Ave & E 95 St,40.784595,-73.949684
3676,Van Brunt St & Van Dyke St,40.675835,-74.014725
3678,Fairmount Ave,40.725727,-74.07196
3680,E 43 St & 5 Ave,40.642494,-74.0132
3681,Grand St,40.71518,-74.03768
3683,Smart Cities Conference,40.710155,-73.984535
3684,W 12 St & W 4 St,40.73756,-74.00398
3685,Prospect Park - 5 Year Anniversary Celebration,40.660652,-73.96459
3686,Gansevoort St & Hudson St,40.73945,-74.00507
3687,E 33 St & 1 Ave,40.743225,-73.974495
3688,2 Ave & E 55 St,40.66107,-74.016624
3689,W 104 St & Amsterdam Ave,40.79904,-73.96649
3690,Park Pl & Church St,40.713,-74.01
3691,28 Ave & 44 St,40.764088,-73.91065
3692,5 St & Market St,40.699997,-73.9744
3693,N 11 St & Kent Ave,40.72248,-73.95922
3695,E 5 St & 2 Ave,40.726868,-73.98919
3696,Rogers Ave & Sterling St,40.639484,-74.02667
3697,W 64 St & Thelonious Monk Circle,40.775158,-73.98919
3699,17 St & 5 Ave,40.644997,-74.01603
3700,E 87 St & 3 Ave,40.779408,-73.95334
3701,Cliff St & Fulton St,40.708317,-74.00504
3704,47 Ave & Skillman Ave,40.636955,-74.022125
3705,Thompson St & Bleecker St,40.7284,-73.99969
3707,23 St & 3 Ave,40.65507,-74.016785
3708,W 13 St & 5 Ave,40.735443,-73.99431
3709,W 15 St & 6 Ave,40.738045,-73.99643
3710,Lefferts Ave & Schenectady Ave,40.643932,-74.01258
3711,E 13 St & Avenue A,40.729668,-73.98068
3712,W 35 St & Dyer Ave,40.754692,-73.9974
3714,Division Av & Hooper St,40.70684,-73.95444
3715,Driggs Ave & N 9 St,40.71817,-73.9552
3716,40 Ave & Crescent St,40.7536,-73.93796
3718,E 11 St & Avenue B,40.727463,-73.97951
3719,Lefferts Ave & Albany Ave,40.662205,-74.010574
3720,Wyckoff St & Bond St,40.684616,-73.98721
3721,31 St & Newtown Ave,40.767548,-73.92094
3722,Prospect Park West & 8 St,40.63916,-74.02671
3723,Cadman Plaza E & Johnson St,40.695316,-73.99016
3724,7 Ave & Central Park South,40.76674,-73.97907
3725,2 Ave & E 72 St,40.76876,-73.958405
3726,Center Blvd & 51 Ave,40.743366,-73.95961
3727,Frost St & Meeker Ave,40.717663,-73.9488
3728,Empire Blvd & New York Ave,40.64497,-74.0121
3731,14 St & 7 Ave,40.64475,-74.02603
3733,Avenue C & E 18 St,40.730564,-73.97398
3734,E 58 St &  1 Ave (NW Corner),40.759125,-73.96266
3736,Bedford Ave & Montgomery St,40.6428,-74.01325
3737,Stanton St & Norfolk St,40.72075,-73.986275
3739,4 Ave & 17 St,40.649155,-74.01118
3740,W Broadway & W Houston St,40.72638,-74.00047
3742,Carroll St & Rochester Ave,40.63961,-74.01985
3744,1 Ave & E 5 St,40.725864,-73.98639
3745,36 Ave & 31 St,40.75651,-73.92957
3746,6 Ave & Broome St,40.724308,-74.00473
3747,E 84 St & 3 Ave,40.777554,-73.955124
3749,Lexington Ave & E 36 St,40.747574,-73.9788
3751,Crown St & Troy Ave,40.62292,-74.010574
3755,DeKalb Ave & Franklin Ave,40.690647,-73.95746
3756,White St & Moore St,40.70451,-73.9351
3757,Stagg St & Morgan Ave,40.710682,-73.93372
3758,George St & Wilson Ave,40.702995,-73.92997
3759,Irving Ave & Jefferson St,40.642353,-74.0121
3760,Willoughby Ave & Wyckoff Ave,40.705612,-73.92153
3761,Cedar St & Myrtle Ave,40.69784,-73.92624
3762,10 St & 7 Ave,40.642017,-74.016556
3763,Wyckoff Av & Jefferson St,40.707165,-73.92371
3764,Bushwick Ave & McKibbin St,40.705517,-73.93936
3765,Bushwick Ave & Stagg St,40.709896,-73.94008
3766,Sharon St & Olive St,40.71535,-73.93856
3767,Powers St & Olive St,40.71323,-73.93894
3768,Crown St & Rogers Ave,40.635426,-74.01606
3769,White St & Johnson Ave,40.707172,-73.93581
3770,Central Ave & Flushing Ave,40.70283,-73.9333
3771,14 St & 5 Ave,40.639782,-74.01884
3772,Devoe St & Morgan Ave,40.71381,-73.93515
3773,Knickerbocker Ave & Thames St,40.70539,-73.92976
3774,Knickerbocker Ave & George St,40.704426,-73.92836
3775,Suydam St & Knickerbocker Ave,40.70201,-73.92377
3776,Central Ave & Starr Street,40.658524,-74.01235
3777,Stockholm St & Wilson Ave,40.699303,-73.92304
3778,Irving Ave & DeKalb Ave,40.7027,-73.92095
3779,3 Ave & 17 St,40.59739,-74.01463
3780,Wyckoff Av & Stanhope St,40.703545,-73.91778
3781,Greene Av & Myrtle Av,40.698566,-73.91888
3782,Brooklyn Bridge Park - Pier 2,40.645504,-74.00478
3783,Cliff St & Fulton St,40.70838,-74.00495
3785,W 42 St & 6 Ave,40.75492,-73.98455
3787,Dock 72 Way & Market St,40.69985,-73.97141
3788,E 12 St & 4 Av,40.73269,-73.98974
3789,Fulton St & Irving Pl,40.68186,-73.959435
3790,Henry St & Middagh St,40.7003,-73.991585
3791,Albany Ave & Carroll St,40.642815,-74.04697
3793,Stuyvesant Walk & 1 Av Loop,40.732338,-73.97898
3795,10 St & 2 Ave,40.671906,-73.993614
3798,W 40 St & 5 Ave,40.75227,-73.98208
3799,6 Ave & W 34 St,40.74964,-73.98805
3800,New York Ave & Montgomery St,40.648052,-73.972534
3803,6 Ave & 12 St,40.621002,-74.04153
3804,Front St & Jay St,40.70246,-73.98684
3805,E 80 St & Park Ave,40.776173,-73.959755
3809,W 55 St & 6 Ave,40.763187,-73.978455
3810,Central Park West & W 82 St,40.782593,-73.971214
3811,16 St & 4 Ave,40.645126,-74.020035
3812,University Pl & E 14 St,40.734814,-73.99209
3814,Buffalo Ave & E New York Ave,40.655003,-74.011955
3815,E 51 St & 2 Ave,40.755295,-73.96764
3816,Metropolitan Ave & Vandervoort Ave,40.71429,-73.93323
3817,Withers St & Kingsland Ave,40.71773,-73.94051
3818,Calyer St & Jewel St,40.72984,-73.94839
3819,Green St & McGuinness Blvd,40.73396,-73.95204
3820,Willoughby Ave & Myrtle Ave,40.69757,-73.93098
3821,Evergreen Ave & Noll St,40.70106,-73.93318
3822,Bushwick Ave & Forrest St,40.643932,-74.017525
3823,Beaver St & Fayette St,40.70099,-73.93921
3824,Van Sinderen Ave & Truxton St,40.6786,-73.90369
3825,Broadway & Furman Ave,40.68139,-73.90756
3826,Moffat St & Bushwick,40.68458,-73.90925
3827,Halsey St & Broadway,40.68565,-73.91564
3828,Eldert St & Bushwick Ave,40.68652,-73.91321
3829,Central Ave & Decatur St,40.6882,-73.90798
3830,Halsey St & Evergreen Ave,40.68858,-73.91227
3831,Broadway & Hancock St,40.642353,-74.017525
3832,Central Ave & Weirfield St,40.69055,-73.91181
3833,Madison St & Evergreen Ave,40.69122,-73.91693
3834,6 St & 7 Ave,40.642494,-74.02615
3835,Knickerbocker Ave & Hancock St,40.69385,-73.90974
3836,Bushwick Ave & Linden St,40.69146,-73.92146
3837,Broadway & Kosciuszko St,40.69329,-73.92852
3838,Bushwick Ave & Harman St,40.69356,-73.92524
3839,President St & Nostrand Ave,40.6428,-74.01382
3840,Putnam Ave & Wyckoff Ave,40.69811,-73.90904
3841,Menahan St & Central Ave,40.69543,-73.9196
3842,10 St & 5 Ave,40.635426,-74.022125
3843,Myrtle Ave & Grove St,40.69905,-73.91516
3844,Myrtle Ave & Linden St,40.69943,-73.91337
3845,Eastern Pkwy & Ralph Ave,40.64498,-74.006645
3846,Central Ave & Himrod St,40.69676,-73.92302
3847,Carroll St & Franklin Ave,40.635426,-74.01382
3848,Suydam St & Broadway,40.69544,-73.93223
3849,Suydam St & St. Nicholas Ave,40.70636,-73.91945
3850,3 Ave & 14 St,40.643623,-74.00845
3851,Metropolitan Ave & Stewart Ave,40.71401,-73.92793
3852,Stewart Ave & Johnson Ave,40.70869,-73.92587
3853,Eastern Pkwy & Rochester Ave,40.641663,-74.0121
3854,Morgan Ave & Maspeth Ave,40.716,-73.93637
3855,Frost St & Debevoise Ave,40.71882,-73.93948
3856,Flatbush Ave & Eastern Pkwy,40.645126,-74.0085
3857,Engert Ave & McGuinness Blvd,40.72158,-73.94546
3858,Kent St & McGuinness Blvd,40.73124,-73.95161
3859,Lorimer St & Calyer St,40.72795,-73.95414
3860,Wilson Ave & Troutman St,40.70166,-73.92754
3861,Menahan St & Wyckoff Ave,40.70113,-73.91422
3862,Eastern Pkwy & Troy Ave,40.646458,-74.02292
3863,Central Ave & Woodbine St,40.69296,-73.91605
3864,Central Ave & Covert St,40.68929,-73.90951
3865,3 St & Prospect Park West,40.635426,-74.02615
3866,Wilson Ave & Moffat St,40.68906,-73.90506
3867,Somers St & Broadway,40.67945,-73.90474
3868,Knickerbocker Ave & Halsey St,40.693,-73.90824
3869,Van Buren St & Broadway,40.692,-73.92617
3870,Melrose St & Broadway,40.69748,-73.935875
3871,Bushwick Ave & Furman Ave,40.644855,-74.01354
3872,Hancock St & Wyckoff Ave,40.6972,-73.90674
3873,Madison St & Cypress Ave,40.70068,-73.90742
3874,5 St & 6 Ave,40.63602,-74.026024
3875,Stephen St & Seneca Ave,40.6988,-73.9007
3876,Forest Ave & Summerfield St,40.69922,-73.89795
3877,Madison St & Forest Ave,40.64747,-73.98816
3878,Cypress Ave & George St,40.69812,-73.90271
3879,Broadway & Madison St,40.63916,-74.02671
3880,Willoughby Ave & Onderdonk Ave,40.7098,-73.91727
3881,12 Ave & W 125 St,40.8183,-73.9604
3882,10 St & 4 Ave,40.641525,-74.017456
3883,Harman St & Seneca Ave,40.70577,-73.91292
3884,Centre St & Seneca Ave,40.69969,-73.9022
3885,Buffalo Ave & St John's Pl,40.669804,-74.00714
3886,Menahan St & Onderdonk Ave,40.70553,-73.9096
3887,Carroll St & Washington Ave,40.638325,-74.016785
3888,Woodward Ave & Harman St,40.70793,-73.91092
3890,Grove St & Broadway,40.69047,-73.92351
3891,Irving Ave & Palmetto St,40.698,-73.9127
3892,38 Ave & 29 St,40.75473,-73.93367
3893,Eastern Pkwy & Schenectady Ave,40.643932,-74.01066
3895,Cypress Ave & Palmetto St,40.701572,-73.90876
3896,Madison St & Seneca Ave,40.70183,-73.90625
3897,Onderdonk Ave & Dekalb Ave,40.70863,-73.91497
3898,E 63 St & 3 Ave,40.763954,-73.9646
3899,Manhattan Av & Leonard St,40.72084,-73.94844
3900,Morgan Ave & Lombardy St,40.72226,-73.93889
3901,Stanhope St & Fairview Ave,40.70998,-73.91116
3902,Eastern Pkwy & Kingston Ave,40.63341,-74.02292
3903,Jefferson Ave & Evergreen Ave,40.68989,-73.91458
3905,3 St & 7 Ave,40.63592,-74.01975
3907,Central Ave & Melrose St,40.70112,-73.93039
3908,Battery Pl & Greenwich St,40.70463,-74.01507
3909,Madison St & Woodward Ave,40.70408,-73.90408
3910,Greene Ave & Grandview Ave,40.709698,-73.90786
3911,Eastern Pkwy & Nostrand Ave,40.64241,-74.01418
3914,7 St & 5 Ave,40.644913,-74.0174
3917,St Johns Pl & Howard Ave,40.669224,-74.01091
3919,Eastern Pkwy & Franklin Ave,40.638626,-74.02667
3922,10 St & 2 Ave,40.6104,-74.01897
3925,Sterling Pl & Rochester Ave,40.655853,-74.00693
3928,Eastern Pkwy & Washington Ave,40.636955,-74.02671
3931,Bay St & Court St,40.65174,-74.01375
3934,Sterling Pl & Schenectady Ave,40.60814,-74.01318
3940,Sigourney St & Columbia St,40.649876,-74.013596
3943,St Johns Pl & Kingston Ave,40.65155,-74.01194
3946,1 St & 6 Ave,40.63592,-74.01975
3950,Park Pl & Thomas S. Boyland St,40.64498,-74.01218
3952,Lincoln Pl & Nostrand Ave,40.639484,-74.02667
3955,4 Ave & 9 St,40.661446,-74.00702
3958,Sterling Pl & Ralph Ave,40.670353,-74.01218
3960,Lincoln Pl & Classon Ave,40.644966,-74.0147
3966,Park Pl & Utica Ave,40.645172,-74.01214
3972,Henry St & Bay St,40.65154,-74.01316
3975,Albany Ave & Park Pl,40.63341,-74.01687
3978,Garfield Pl & 8 Ave,40.64245,-74.02615
3981,Dwight St & Van Dyke St,40.638206,-74.01893
3982,Eastern Pkwy\t& St Marks Ave,40.650543,-73.98297
3984,Sterling Pl & New York Ave,40.642906,-74.01576
3987,5 Ave & 3 St,40.64015,-74.02299
3991,Prospect Pl & Howard Ave,40.669964,-74.011215
3993,Sterling Pl & Bedford Ave,40.641182,-74.01747
3996,7 St & 3 Ave,40.638325,-74.02667
3999,Park Pl & Buffalo Ave,40.65242,-74.010254
4001,St Johns Pl & Washington Ave,40.64241,-74.017136
4007,Schenectady Ave & Prospect Pl,40.645306,-74.02292
4010,Grand Army Plaza & Plaza St West,40.63482,-74.02671
4013,Columbia St & Lorraine St,40.653965,-74.01557
4014,Pacific St & Sackman St,40.665108,-74.00443
4016,Kingston Ave & Park Pl,40.640472,-74.02292
4019,Carroll St & 6 Ave,40.637466,-74.02562
4023,Pacific St & Thomas S. Boyland St,40.659924,-74.00883
4025,Prospect Pl & Nostrand Ave,40.64496,-74.01688
4028,3 St & 3 Ave,40.641422,-74.01897
4031,St Marks Ave & Ralph Ave,40.644855,-74.01017
4033,Park Pl & Franklin Ave,40.635452,-74.01602
4039,St Marks Ave & Rochester Ave,40.646458,-74.02292
4042,Underhill Ave & Lincoln Pl,40.64042,-74.0121
4045,Clinton St & Centre St,40.666355,-74.011955
4048,Bergen St & Troy Ave,40.642353,-74.009514
4051,Berkeley Pl & 7 Ave,40.64015,-74.01688
4054,Dwight St & Dikeman St,40.655857,-74.011055
4055,Bergen St & Mother Gaston Blvd,40.633812,-73.99739
4057,Brooklyn Ave & Prospect Pl,40.638306,-74.01651
4060,Carroll St & 5 Ave,40.64241,-74.01563
4064,Bergen St & Saratoga Ave,40.63961,-74.01985
4066,Bedford Ave & Bergen St,40.644962,-74.01588
4072,Bergen St & Buffalo Ave,40.67408,-74.01217
4074,Classon Ave & St Marks Ave,40.640453,-74.02615
4077,Court St & Nelson St,40.575413,-74.01747
4080,Schenectady Ave & Pacific St,40.63961,-74.01985
4083,Park Pl & Vanderbilt Ave,40.6767,-73.969025
4086,Columbia St & W 9 St,40.638206,-74.0093
4087,Van Sinderen Ave & Atlantic Ave,40.641663,-74.004684
4089,Bergen St & Kingston Ave,40.638306,-74.016266
4095,Van Brunt St & Van Dyke St,40.642097,-74.018585
4096,Dean St & Rockaway Ave,40.670876,-73.994644
4098,New York Ave & St Marks Ave,40.638325,-74.01653
4101,President St & 4 Ave,40.60814,-74.023
4105,Pacific St & Ralph Ave,40.658237,-74.00462
4107,Dean St & Franklin Ave,40.635426,-74.02671
4110,3 St & Hoyt St,40.638206,-74.01496
4113,Pacific St & Rochester Ave,40.633118,-74.01548
4116,Prospect Pl & Underhill Ave,40.639782,-74.016785
4119,Clinton St & 4 Place,40.64635,-74.02299
4120,Fulton St & Williams Ave,40.66317,-74.005486
4122,Pacific St & Troy Ave,40.63961,-74.01985
4124,Verona Pl & Fulton St,40.654495,-74.0128
4125,7 Ave & Park Pl,40.64069,-74.01688
4128,Pioneer St & Richards St,40.64925,-74.020035
4129,Herkimer St & Eastern Pkwy,40.675888,-73.99489
4131,Brooklyn Ave & Dean St,40.644463,-74.01698
4134,Berkeley Pl & 6 Ave,40.575413,-74.015656
4137,Coffey St & Conover St,40.637466,-74.02562
4138,Thomas S. Boyland St & Fulton St,40.641422,-74.017296
4140,Pacific St & Nostrand Ave,40.63961,-74.01985
4143,3 Ave & Carroll St,40.642643,-74.01735
4146,Columbus Pl & Atlantic Ave,40.575413,-74.00219
4148,Pacific St & Classon Ave,40.640297,-74.01588
4151,Smith St & 3 St,40.640472,-74.0223
4154,Pacific St & Utica Ave,40.660458,-74.01653
4157,Bergen St & Vanderbilt Ave,40.59739,-74.02299
4161,Van Sinderen Ave & Truxton St,40.63961,-74.01985
4166,Prospect Pl & 6 Ave,40.636955,-74.022125
4169,Pioneer St & Van Brunt St,40.65239,-74.0223
4170,Somers St & Rockaway Ave,40.655365,-74.011955
4172,Herkimer St & New York Ave,40.648052,-74.011955
4175,Douglass St & 4 Ave,40.64069,-74.01653
4179,Fulton St & Saratoga Ave,40.673115,-74.01205
4181,Brevoort Pl & Bedford Ave,40.64978,-74.017456
4184,Carroll St & Bond St,40.63551,-74.02299
4187,Sumpter St & Fulton St,40.663593,-73.99152
4190,Grand Ave & Bergen St,40.648876,-74.016495
4193,1 Pl & Clinton St,40.65327,-74.01676
4196,Chauncey St & Stuyvesant Ave,40.637466,-74.02603
4199,Bergen St & Carlton Ave,40.631348,-74.023
4202,Richards St & Delavan St,40.660213,-74.01664
4203,Somers St & Broadway,40.67896,-74.008545
4205,Kingston Ave & Herkimer St,40.575413,-74.01191
4208,Baltic St & 5 Ave,40.644913,-74.01676
4212,MacDougal St & Rockaway Ave,40.655617,-74.01218
4214,Macon St & Nostrand Ave,40.644703,-74.01579
4217,Degraw St & 3 Ave,40.6338,-74.02299
4220,Ralph Ave & Fulton St,40.60961,-74.0121
4222,Lefferts Pl & Franklin Ave,40.63916,-74.02671
4225,Carroll St & Smith St,40.642708,-74.0171
4228,Chauncey St & Malcolm X Blvd,40.65503,-74.01288
4231,Underhill Ave & Pacific St,40.648003,-74.01676
4237,Albany Ave & Fulton St,40.64752,-74.01239
4243,Commerce St & Van Brunt St,40.6104,-74.020035
4244,Broadway & Furman Ave,40.63961,-74.01985
4246,MacDonough St & Marcy Ave,40.655003,-74.017456
4249,St Marks Pl & 4 Ave,40.640453,-74.01185
4253,Thomas S. Boyland St & Marion St,40.657215,-74.01579
4255,Hancock St & Bedford Ave,40.64246,-74.012535
4258,Degraw St & Hoyt St,40.638588,-74.016205
4261,Patchen Ave & Bainbridge St,40.67393,-74.00883
4263,Fulton St & Irving Pl,40.64488,-74.016205
4266,Clinton St & Union St,40.637466,-74.02667
4278,Marcus Garvey Blvd & Macon St,40.64015,-74.015656
4281,Bergen St & Flatbush Ave,40.64015,-74.02341
4285,Rockaway Ave & Bainbridge St,40.648052,-74.01372
4290,Wyckoff St & 3 Ave,40.63932,-74.02705
4293,Chauncey St & Howard Ave,40.658134,-74.0169
4298,Degraw St & Smith St,40.64591,-74.0171
4301,MacDonough St & Malcolm X Blvd,40.646362,-74.02296
4307,President St & Henry St,40.635426,-74.01722
4310,Macon St & Lewis Ave,40.63961,-74.01985
4317,Bushwick Ave & Furman Ave,40.67615,-74.011925
4319,Halsey St & Tompkins Ave,40.59739,-74.016495
4322,Bergen St & 4 Ave,40.639782,-74.02299
4325,Thomas S. Boyland St & Macon St,40.652462,-74.011795
4327,Putnam Ave & Nostrand Ave,40.63482,-74.017456
4330,Hoyt St & Warren St,40.66668,-74.01723
4334,Halsey St & Ralph Ave,40.650013,-74.01276
4336,Monroe St & Classon Ave,40.60961,-74.01651
4339,Butler St & Court St,40.575413,-74.01249
4342,Hancock St & Malcolm X Blvd,40.6419,-74.01201
4345,Fulton St & Waverly Ave,40.631348,-74.021515
4348,Carroll St & Columbia St,40.64882,-74.01588
4354,Atlantic Ave & Fort Greene Pl,40.599514,-74.02689
4357,Moffat St & Bushwick,40.64752,-74.013115
4362,Pacific St & Nevins St,40.64245,-74.01318
4366,Decatur St & Saratoga Ave,40.651207,-74.013725
4368,Monroe St & Bedford Ave,40.62889,-74.02671
4371,Warren St & Smith St,40.640453,-74.02603
4374,Picnic Point,40.68507,-74.02544
4375,Jefferson Ave & Patchen Ave,40.664963,-74.01196
4377,Cambridge Pl & Gates Ave,40.63916,-74.02671
4380,Henry St & Degraw St,40.659496,-74.0157
4383,Hancock St & Stuyvesant Ave,40.65333,-74.01239
4386,Fulton St & Clermont Ave,40.641182,-74.0226
4392,Putnam Ave & Throop Ave,40.65434,-74.01602
4395,Hanson Pl & Ashland Pl,40.60814,-74.02615
4399,Eldert St & Bushwick Ave,40.65283,-74.017456
4401,Marcy Ave & Gates Ave,40.68651,-73.947655
4404,Bond St & Bergen St,40.60814,-74.02219
4408,Macon St & Howard Ave,40.652462,-74.01498
4410,Franklin Ave & Quincy St,40.657513,-74.008484
4413,Warren St & Court St,40.657215,-74.017265
4416,Madison St & Malcolm X Blvd,40.640816,-74.018745
4419,Washington Ave & Greene Ave,40.644966,-74.01602
4422,Columbia St & Degraw St,40.64461,-74.01666
4425,Lewis Ave & Madison St,40.64747,-74.016205
4428,Cumberland St & Lafayette Ave,40.639248,-74.02615
4432,Central Ave & Decatur St,40.66301,-74.01305
4434,Monroe St & Tompkins Ave,40.60961,-74.016266
4437,3 Ave & Schermerhorn St,40.637466,-74.02562
4440,Yankee Ferry Terminal,40.686703,-74.018906
4441,Broadway & Hancock St,40.650745,-74.01183
4446,Bergen St & Smith St,40.6104,-74.02562
4450,Putnam Ave & Ralph Ave,40.575413,-74.012695
4452,Lafayette Ave & Classon Ave,40.64015,-74.023
4455,4455.10,40.637466,-74.02562
4458,Stuyvesant Ave & Gates Ave,40.65242,-74.009766
4461,Clermont Ave & Lafayette Ave,40.621002,-74.04153
4467,Monroe St & Marcus Garvey Blvd,40.59739,-74.016205
4470,Lafayette Ave & Ft Greene Pl,40.642605,-74.02671
4474,Halsey St & Evergreen Ave,40.65188,-74.01265
4476,Marcy Ave & Lafayette Ave,40.60961,-74.0226
4479,Bond St & Fulton St,40.575413,-74.01651
4483,Broadway & Madison St,40.650745,-74.0146
4488,Boerum Pl	& Pacific St,40.6104,-74.01666
4491,Monroe St & Patchen Ave,40.575413,-74.01588
4494,Lafayette Ave & St James Pl,40.64437,-74.02615
4497,Congress St & Hicks St,40.635426,-74.01451
4500,Lexington Ave & Stuyvesant Ave,40.642605,-74.01315
4507,Wilson Ave & Moffat St,40.646297,-74.02293
4510,Greene Ave & Throop Ave,40.575413,-74.01603
4513,Ashland Pl & Dekalb Ave,40.645016,-74.014725
4517,Jefferson Ave & Evergreen Ave,40.644703,-74.01266
4519,Greene Ave & Nostrand Ave,40.59739,-74.02562
4522,State St & Smith St,40.645496,-74.01698
4526,Grove St & Broadway,40.59739,-74.01967
4528,DeKalb Ave & Franklin Ave,40.646156,-74.02615
4531,Henry St & Atlantic Ave,40.637466,-74.02562
4534,Lexington Ave & Patchen Ave,40.641422,-74.017296
4543,Lewis Ave & Greene Ave,40.642906,-74.01529
4546,DeKalb Ave & S Portland Ave,40.635426,-74.02671
4550,Central Ave & Covert St,40.638306,-74.016205
4553,Kosciuszko St & Tompkins Ave,40.64015,-74.015656
4556,Albee Square W & Fulton St,40.673046,-73.98407
4560,Madison St & Evergreen Ave,40.638206,-74.011765
4562,DeKalb Ave & Bedford Ave,40.682167,-73.98297
4565,85,40.637466,-74.02562
4568,Van Buren St & Broadway,40.65177,-74.014725
4576,Lafayette Ave & Stuyvesant Ave,40.65535,-74.01579
4582,Knickerbocker Ave & Cooper St,40.663593,-74.01698
4587,Willoughby St & Ashland Pl,40.643627,-74.02299
4590,Soissons Landing,40.691246,-74.01591
4591,Central Ave & Weirfield St,40.64712,-74.01537
4593,Marcy Ave & Hart St,40.692677,-73.99142
4596,Duffield St & Willoughby St,40.641182,-74.01893
4600,Bushwick Ave & Linden St,40.643932,-74.01448
4605,Clinton St & Joralemon St,40.64245,-74.02296
4608,Broadway & Kosciuszko St,40.646297,-74.02293
4611,Willoughby Ave & Hall St,40.640453,-74.01382
4614,Atlantic Ave & Furman St,40.638588,-74.02671
4615,Wyckoff Ave & Cooper Ave,40.670876,-73.99704
4617,Lewis Ave & Kosciuszko St,40.6519,-74.01218
4620,Adelphi St & Myrtle Ave,40.638306,-74.01698
4623,Knickerbocker Ave & Halsey St,40.655617,-74.01602
4625,Pulaski St & Throop Ave,40.69284,-73.97659
4628,Myrtle Ave & Fleet Pl,40.575413,-74.01548
4632,Central Ave & Woodbine St,40.63538,-74.025154
4634,Willoughby Ave & Walworth St,40.653008,-74.01266
4637,Fulton St & Adams St,40.6104,-74.027176
4640,Bushwick Ave & Harman St,40.643623,-74.01339
4645,Henry St & Remsen St,40.621002,-74.04153
4648,Malcolm X Blvd & DeKalb Ave,40.64802,-74.01239
4651,Clinton Ave & Myrtle Ave,40.599373,-74.01606
4654,Norman St & Wyckoff Ave,40.669407,-74.011765
4656,Pulaski St & Marcus Garvey Blvd,40.575413,-74.01588
4659,Myrtle Ave & St Edwards St,40.643414,-74.02296
4663,Knickerbocker Ave & Hancock St,40.65283,-74.01341
4665,Willoughby Ave & Tompkins Ave,40.644978,-74.016266
4668,Johnson St & Gold St,40.644672,-74.01328
4672,Menahan St & Central Ave,40.638306,-74.01382
4677,Cadman Plaza E & Johnson St,40.637466,-74.02562
4680,Bushwick Ave & Dekalb Ave,40.657513,-74.01205
4683,Emerson Pl & Myrtle Ave,40.645016,-74.01383
4687,Cypress Ave & St Felix Ave,40.66312,-73.987854
4689,Stuyvesant Ave & Hart St,40.640804,-74.01287
4692,Clermont Ave & Park Ave,40.64978,-74.01448
4695,Irving Ave & Halsey St,40.668213,-74.01315
4697,Throop Ave & Myrtle Ave,40.646465,-74.01354
4700,Park Ave & St Edwards St,40.65736,-74.017296
4707,Myrtle Ave & Marcy Ave,40.635426,-74.01687
4710,Jay St & Tech Pl,40.64032,-74.015686
4713,Central Ave & Himrod St,40.63306,-74.01719
4715,Franklin Ave & Myrtle Ave,40.642925,-74.01687
4718,Pierrepont St & Monroe Pl,40.646366,-74.013084
4719,St Felix Ave & 61 St,40.653065,-74.01018
4721,Cedar St & Evergreen Ave,40.64042,-74.01498
4724,Washington Ave & Park Ave,40.635426,-74.01747
4727,Summerfield St & Cypress Ave,40.679638,-74.01249
4729,Myrtle Ave & Lewis Ave,40.652084,-74.01529
4732,Carlton Ave & Flushing Ave,40.61317,-74.025154
4735,Hancock St & Wyckoff Ave,40.646362,-74.02296
4743,Linden St & Knickerbocker Ave,40.65549,-74.01202
4748,Clinton St & Tillary St,40.64042,-74.01884
4751,Cedar St & Myrtle Ave,40.644962,-74.02293
4756,Brooklyn Bridge Park - Pier 2,40.648262,-74.01208
4757,Seneca Ave & Decatur St,40.674496,-73.99421
4759,Willoughby Ave & Myrtle Ave,40.636047,-74.01967
4762,Clinton Ave & Flushing Ave,40.635426,-74.02296
4765,Cypress Ave & George St,40.681423,-74.004425
4768,Park Ave & Marcus Garvey Blvd,40.644978,-74.013145
4771,N Portland Ave & Flushing Ave,40.635426,-74.01328
4775,Irving Ave & Palmetto St,40.66398,-74.01473
4778,Park Ave & Marcy Ave,40.69749,-73.951164
4781,Concord St & Bridge St,40.6338,-74.01727
4784,Greene Av & Myrtle Av,40.65308,-74.01229
4789,Clark St & Henry St,40.639484,-74.02667
4792,Central Ave & Starr St,40.638206,-74.01448
4798,Forest Ave & Summerfield St,40.660427,-74.0121
4801,Melrose St & Broadway,40.6419,-74.017006
4804,Dock 72 Way & Market St,40.639687,-74.016266
4807,Madison St & Cypress Ave,40.65813,-74.01341
4812,Nassau St & Navy St,40.60814,-74.01709
4816,Myrtle Ave & Grove St,40.67087,-74.01249
4818,Nostrand Ave & Flushing Ave,40.6477,-74.01499
4821,Adams St & Prospect St,40.638306,-74.01548
4824,Stockholm St & Wilson Ave,40.575413,-74.015656
4826,Wallabout St & Kent Ave,40.67735,-74.010666
4829,Columbia Heights & Cranberry St,40.638588,-74.02615
4830,61 St & 60 Ln,40.673836,-74.012024
4832,Central Ave & Melrose St,40.67297,-74.01602
4837,Centre St & Seneca Ave,40.68135,-74.014725
4840,Beaver St & Fayette St,40.650364,-74.0142
4843,5 St & Market St,40.647213,-74.01698
4846,South St & Whitehall St,40.643448,-74.07243
4847,Wyckoff Ave & Gates Ave,40.643932,-74.016205
4850,Tompkins Ave & Hopkins St,40.638306,-74.01382
4853,Bridge St & York St,40.65549,-74.01696
4856,Irving Ave & Harman St,40.575413,-74.01305
4861,Henry St & Middagh St,40.642353,-74.0171
4862,Cooper Ave & 65 Pl,40.60961,-74.01191
4864,Wilson Ave & Troutman St,40.60961,-74.02293
4871,71 Ave & Myrtle Ave,40.60961,-74.01382
4873,Evergreen Ave & Noll St,40.642353,-74.02296
4880,Madison St & Seneca Ave,40.66511,-74.012856
4883,Broadway & Whipple St,40.63239,-74.02293
4889,Bus Slip & State St,40.657864,-74.01607
4890,Menahan St & Wyckoff Ave,40.61622,-74.037506
4892,Lorimer St & Harrison Ave,40.70245,-73.950905
4895,Front St & Jay St,40.63482,-74.02341
4898,Irving Ave & DeKalb Ave,40.64802,-74.01709
4903,Dock St & Front St,40.646366,-74.013794
4904,Cypress Hills St & Otto Rd,40.687794,-73.99363
4906,George St & Wilson Ave,40.670334,-74.017426
4912,Catalpa Ave & Woodward Ave,40.64015,-74.015656
4914,Bushwick Ave & Forrest St,40.642796,-74.0121
4920,Broad St & Water St,40.684986,-74.01199
4921,Cypress Ave & Palmetto St,40.668667,-74.012535
4927,Front St & Gold St,40.652584,-74.01723
4931,Wyckoff Av & Stanhope St,40.650013,-74.015816
4933,Marcy Ave & Lynch St,40.642353,-73.98352
4936,Front St & Washington St,40.61317,-74.0171
4939,Suydam St & Knickerbocker Ave,40.652462,-74.0172
4945,Fresh Pond Rd & 69 Ave,40.648636,-74.01186
4947,Central Ave & Flushing Ave,40.646297,-74.02293
4953,South St & Gouverneur Ln,40.64882,-74.01576
4954,Madison St & Woodward Ave,40.650013,-74.01537
4956,Humboldt St & Varet St,40.660645,-74.01191
4962,Broad St & Bridge St,40.648003,-74.01771
4963,Menahan St & Seneca Ave,40.641663,-74.01588
4965,Lorimer St & Broadway,40.59739,-74.01132
4968,Bridge St & Water St,40.643627,-74.01696
4971,Hart St & Wyckoff Ave,40.65454,-74.01448
4977,65 St & Otto Rd,40.66312,-74.01194
4979,Knickerbocker Ave & George St,40.660645,-74.01324
4982,Taylor St & Bedford Ave,40.68675,-73.99587
4985,60 Pl & 67 Ave,40.671757,-74.01212
4987,White St & Moore St,40.652866,-74.015816
4990,Railroad Ave & Kay Ave,40.648636,-74.0071
4993,Old Slip & Front St,40.64032,-74.01713
4994,Onderdonk Ave & Gates Ave,40.652462,-74.01218
4996,McKibbin St & Manhattan Ave,40.63538,-74.025154
5001,Battery Pl & Greenwich St,40.641525,-74.01942
5002,Harman St & Seneca Ave,40.661247,-74.015816
5004,Boerum St & Broadway,40.64712,-74.01285
5010,Willoughby Ave & Wyckoff Ave,40.643623,-74.0172
5018,Knickerbocker Ave & Thames St,40.648674,-74.01611
5021,Kent Ave & Division Ave,40.651745,-74.01289
5024,Front St & Maiden Ln,40.642796,-74.02519
5025,Madison St & Forest Ave,40.650013,-74.01186
5027,Bushwick Ave & McKibbin St,40.650017,-74.0147
5033,Broadway & Morris St,40.64729,-74.01942
5034,Menahan St & Onderdonk Ave,40.66743,-74.013725
5036,Leonard St & Boerum St,40.653225,-74.01588
5043,Suydam St & St Nicholas Ave,40.647213,-74.01375
5045,Division Av & Hooper St,40.64461,-74.016205
5051,Irving Ave & Jefferson St,40.64276,-74.017136
5053,Lee Ave & Taylor St,40.696075,-74.00496
5057,64 St & Woodbine St,40.650013,-74.01194
5059,McKibbin St & Bogart St,40.64501,-74.01285
5062,Kent Ave & S 11 St,40.707527,-73.968445
5065,Cliff St & Fulton St,40.64274,-74.02146
5066,Fairview Ave & Linden St,40.64747,-74.01375
5068,Montrose Ave & Bushwick Ave,40.643932,-74.016716
5073,Greenwich St & Rector St,40.641182,-74.01747
5074,Woodward Ave & Harman St,40.646355,-74.017136
5076,Scholes St & Lorimer St,40.655132,-74.011925
5082,Jefferson St & Cypress Ave,40.63852,-74.01301
5084,Division Ave & Marcy Ave,40.65536,-74.01372
5090,Harrison Pl & Porter Ave,40.657505,-74.01264
5093,Bedford Ave & S 9 St,40.66743,-74.01537
5096,Pearl St & Peck Slip,40.666073,-74.0171
5097,60 Pl & Linden St,40.664833,-74.01305
5098,Peck Slip & Front St,40.707874,-74.00167
5099,Waterbury St & Stagg St,40.63852,-74.02296
5105,Liberty St & Broadway,40.64501,-74.02615
5106,Greene Ave & Grandview Ave,40.650013,-74.011955
5108,Scholes St & Manhattan Ave,40.64712,-74.01655
5114,South End Ave & Albany St,40.644962,-74.02296
5115,Onderdonk Ave & Dekalb Ave,40.663536,-74.016495
5117,Stagg St & Union Ave,40.646744,-74.023
5123,Stewart Ave & Johnson Ave,40.638306,-74.01382
5125,Broadway & Roebling St,40.645172,-74.0171
5128,Catherine St & Monroe St,40.643475,-74.07222
5129,Palmetto St & Traffic Ave,40.686893,-74.01209
5134,Broadway & Kent Ave,40.644897,-74.016716
5137,Fulton St & William St,40.64015,-74.0226
5138,60 Pl & Bleecker St,40.671757,-74.011955
5140,Bushwick Ave & Stagg St,40.668404,-74.01191
5145,Albany St & Greenwich St,40.645348,-74.01938
5146,Stanhope St & Fairview Ave,40.663197,-74.01611
5148,Leonard St & Maujer St,40.648674,-74.0171
5156,S 4 St & Rodney St,40.642017,-74.01725
5159,Pike St & Monroe St,40.655685,-74.01712
5160,Metropolitan Ave & 65 Ln,40.689133,-74.01212
5164,Broadway & Berry St,40.636955,-74.02219
5167,St James Pl & Pearl St,40.643475,-74.07222
5168,Grove St & Fresh Pond Rd,40.662994,-74.013725
5170,Stagg St & Morgan Ave,40.60814,-74.01375
5175,Fulton St & Broadway,40.642643,-74.0174
5176,Bleecker St & Forest Ave,40.650013,-74.01203
5178,Graham Ave & Grand St,40.63482,-74.015656
5181,Cherry St,40.665215,-74.01601
5184,South End Ave & Liberty St,40.648098,-74.02132
5187,Hope St & Union Ave,40.62889,-74.01688
5190,Clinton St	& Cherry St,40.659515,-74.018074
5195,S 4 St & Roebling St,40.65283,-74.017136
5198,Market St & Cherry St,40.647476,-74.01884
5199,65 Ln & Metropolitan Ave,40.65813,-74.01186
5204,S 4 St & Wythe Ave,40.64015,-74.01652
5207,Centre St & Chambers St,40.61317,-74.02304
5210,Powers St & Olive St,40.668163,-74.0172
5216,Barclay St & Church St,40.639782,-74.01718
5217,Amory Ct & Metropolitan Ave,40.65736,-74.01719
5219,Manhattan Ave & Devoe St,40.6465,-74.02615
5225,Flushing Ave & Woodward Ave,40.651627,-74.01719
5230,Rutgers St & Henry St,40.644978,-74.01537
5235,Driggs Ave & S 2 St,40.640816,-74.018745
5238,Division St & Bowery,40.64032,-74.01735
5241,Metropolitan Ave & Vandervoort Ave,40.681923,-74.000275
5247,Reade St & Broadway,40.64734,-74.01499
5248,Eliot Ave & 60 Ln,40.666042,-73.99567
5250,Bushwick Ave & Powers St,40.60814,-74.0172
5257,53 St & Flushing Ave,40.66793,-74.01193
5259,Devoe St & Lorimer St,40.65509,-74.01498
5262,Madison St & Montgomery St,40.638206,-74.01448
5267,Grand St & Havemeyer St,40.60961,-74.0171
5270,Division St & Bowery,40.638306,-74.02671
5273,Metropolitan Ave & Stewart Ave,40.653328,-74.01198
5276,S 2 St & Kent Ave,40.65196,-74.01725
5279,Centre St & Worth St,40.643414,-74.0163
5280,Fresh Pond Rd & Eliot Ave,40.64747,-74.01278
5282,Devoe St & Morgan Ave,40.60814,-74.01324
5288,Murray St & Greenwich St,40.641422,-74.0223
5289,56 St & Arnold Ave,40.68029,-74.010086
5291,Graham Ave & Conselyea St,40.641663,-74.017006
5294,Henry St & Grand St,40.603527,-74.013306
5297,Vesey Pl & River Terrace,40.64032,-74.02399
5300,Metropolitan Ave & Meeker Ave,40.641422,-74.017296
5303,Canal St & Rutgers St,40.577404,-74.025154
5308,Metropolitan Ave & Bedford Ave,40.644436,-74.02299
5311,Division St & Bowery,40.69018,-74.01322
5321,60 Ave & Fresh Pond Rd,40.70975,-74.00709
5323,Sharon St & Olive St,40.64032,-74.01688
5326,Stanton St & Mangin St,40.656204,-74.01277
5329,Murray St	& West St,40.614895,-74.02002
5332,Jackson St & Leonard St,40.62889,-74.01214
5335,Bialystoker Pl & Delancey St,40.642246,-74.01638
5340,N 7 St & Driggs Ave,40.642647,-74.01638
5342,Allen St & Hester St,40.59739,-74.01638
5343,Allen St & Hester St,40.599373,-74.02562
5348,Wythe Ave & Metropolitan Ave,40.635426,-74.02671
5351,Bayard St & Baxter St,40.636955,-74.023
5354,Morgan Ave & Maspeth Ave,40.645496,-74.01537
5359,Church St & Thomas St,40.577404,-74.02667
5360,60 St & 60 Rd,40.695866,-74.01204
5362,Withers St & Kingsland Ave,40.662903,-74.00979
5365,Columbia St & Rivington St,40.64631,-74.01449
5368,River Ter & Warren St,40.634262,-74.023476
5369,Grand Ave & 55 St,40.691895,-74.01278
5371,Frost St & Meeker Ave,40.655132,-74.012024
5374,Norfolk St & Broome St,40.640804,-74.017136
5379,Berry St & N 8 St,40.638206,-74.02299
5382,Forsyth St	& Grand St,40.61317,-74.02671
5388,Kent Ave & Grand St,40.63482,-74.0171
5391,Lispenard St & Broadway,40.64335,-74.01725
5392,63 St & 59 Dr,40.64631,-74.00293
5400,Duane St & Greenwich St,40.65564,-74.01671
5401,59 St & 59 Rd,40.70076,-74.00869
5403,Graham Ave & Herbert St,40.64245,-74.01318
5406,Pitt St & Stanton St,40.640144,-74.021614
5409,Page Pl & Grand Ave,40.65298,-74.008995
5411,Driggs Ave & N 9 St,40.64461,-74.01606
5414,Allen St & Rivington St,40.633118,-74.017395
5419,N 5 St & Wythe Ave,40.648636,-74.013695
5422,Howard St & Centre St,40.577404,-74.07222
5430,6 Ave & Walker St,40.64539,-74.018196
5431,60 Pl & Flushing Ave,40.71968,-73.98105
5433,Frost St & Debevoise Ave,40.640453,-74.013725
5436,Ave D & E 3 St,40.641193,-74.0223
5440,57 St & Grand Ave,40.69987,-73.989685
5442,Bayard St & Leonard St,40.63538,-74.025154
5445,Stanton St & Norfolk St,40.636955,-74.02562
5450,N 10 St & Berry St,40.644436,-74.02615
5453,Forsyth St & Broome St,40.63538,-74.025154
5458,N 5 St & Northside Piers,40.646744,-74.023
5470,Greenwich St & Hubert St,40.577404,-74.02562
5471,Grand Ave & 58 Ave,40.716686,-73.97829
5473,Engert Ave & McGuinness Blvd,40.65,-74.01638
5476,E 2 St & Ave C,40.646194,-74.0168
5481,Driggs Ave & Lorimer St,40.63538,-74.025154
5484,Allen St & Stanton St,40.61317,-74.01697
5489,Kent Ave & N 7 St,40.635426,-74.02615
5492,Cleveland Pl & Spring St,40.636955,-74.02615
5500,6 Ave & Canal St,40.639484,-74.02667
5501,Fresh Pond Rd & Flushing Ave,40.690655,-74.00832
5503,Morgan Ave & Lombardy St,40.641663,-74.01318
5506,Ave D & E 8 St,40.636955,-74.02219
5509,Washington St & Laight St,40.668343,-74.01726
5510,57 Rd & 58 St,40.67708,-74.0172
5515,E 2 St & Ave B,40.62889,-74.07222
5520,N 15 St & Wythe Ave,40.63482,-74.015656
5523,Stanton St & Chrystie St,40.637466,-74.02562
5532,Mercer St & Spring St,40.646816,-74.01372
5539,Laight St & Hudson St,40.577404,-74.01266
5540,56 Dr & 61 St,40.67924,-74.0106
5542,Driggs Ave & N Henry St,40.642643,-74.023
5545,E 5 St & Ave C,40.642246,-74.02341
5548,58 St & 56 Dr,40.673965,-74.01588
5550,Bedford Ave & Nassau Ave,40.646458,-74.02292
5553,E 2 St & Ave A,40.639782,-74.0223
5558,Wythe Ave & N 13 St,40.643414,-74.0171
5561,Lafayette St & Jersey St,40.636955,-74.02219
5569,W Broadway & Spring St,40.639782,-74.01804
5570,Grand Ave & Remsen Pl,40.65154,-73.98635
5572,Van Dam St & Meeker Ave,40.646355,-74.01194
5575,Ave D & E 10 St,40.655685,-74.012955
5578,Watts St & Greenwich St,40.64501,-74.01736
5579,55 Dr & Maurice Ave,40.68712,-73.99956
5581,Nassau Ave & Russell St,40.645496,-74.02299
5584,E 6 St & Ave B,40.639816,-74.021126
5593,E 1 St & 1 Ave,40.63482,-74.07222
5602,Greene St & Prince St,40.64765,-74.014824
5610,6 Ave & Broome St,40.638306,-74.01732
5611,61 St & Borden Ave,40.709694,-73.978806
5613,Kingsland Ave & Nassau Ave,40.648636,-74.01339
5616,E 12 St & Ave C,40.639484,-74.02667
5623,Nassau Ave & Newell St,40.655685,-74.01652
5626,1 Ave & E 5 St,40.644302,-74.0223
5633,Banker St & Meserole Ave,40.64591,-74.01315
5636,E 1 St & Bowery,40.636955,-74.02341
5644,W Broadway & W Houston St,40.65784,-74.01697
5653,Spring St & Hudson St,40.6465,-74.02615
5656,N Henry St & Norman Ave,40.666042,-74.01189
5659,E 10 St & Ave A,40.642605,-74.01688
5666,Meserole Ave & Manhattan Ave,40.660145,-74.01655
5669,E 6 St & 2 Ave,40.646194,-74.01688
5676,Calyer St & West St,40.646297,-74.02293
5679,Bleecker St & Crosby St,40.59739,-74.01747
5687,King St & Varick St,40.644962,-74.01719
5688,64 St & 53 Dr,40.672462,-73.98795
5696,Pier 40 - Hudson River Park,40.63239,-74.023
5703,Ave A & E 11 St,40.641182,-74.01747
5709,Calyer St & Guernsey St,40.642647,-74.01217
5712,Cooper Square & Astor Pl,40.639782,-74.01725
5721,LaGuardia Pl & W 3 St,40.63482,-74.022316
5730,Greenwich St & W Houston St,40.641182,-74.02615
5731,Maurice Ave & 53 Dr,40.70989,-74.0032
5736,E 14 St & Ave B,40.62889,-74.01712
5743,Calyer St & Jewel St,40.640816,-74.018745
5746,E 10 St & 2 Ave,40.646156,-74.02341
5752,Greenpoint Ave & West St,40.63538,-74.025154
5755,University Pl & E 8 St,40.635452,-74.0223
5763,Carmine St & 6 Ave,40.637466,-74.02562
5764,65 Pl & 53 Ave,40.680058,-73.99132
5769,Ave C & E 16 St,40.666073,-74.01454
5772,Morton St & Washington St,40.638206,-74.01722
5779,1 Ave & E 16 St,40.63306,-74.018875
5785,Greenpoint Ave & Manhattan Ave,40.638206,-74.01638
5788,4 Ave & E 12 St,40.64032,-74.01712
5794,India St & West St,40.635426,-74.01337
5797,MacDougal St & Washington Sq,40.647255,-74.01736
5805,7 Ave & Bleecker St,40.64485,-74.02115
5806,53 Ave & 62 St,40.65736,-74.01317
5820,E 13 St & 2 Ave,40.642605,-74.0223
5826,India St & Manhattan Ave,40.63482,-74.01698
5829,E 11 St & Broadway,40.66845,-74.01218
5838,Washington Pl & 6 Ave,40.64461,-74.01699
5845,Woodhaven Blvd & Hoffman Dr,40.6465,-74.02615
5847,Christopher St & Greenwich St,40.63538,-74.025154
5851,Greenpoint Ave & Monitor St,40.68893,-74.00969
5854,1 Ave & E 18 St,40.638184,-74.02425
5860,Green St & McGuinness Blvd,40.665985,-74.01228
5863,E 15 St & 3 Ave,40.642643,-74.01681
5869,Huron St & Franklin St,40.63538,-74.025154
5872,E 10 St & 5 Ave,40.64461,-74.0223
5878,60 Ave & Junction Blvd,40.72038,-73.99451
5880,W 4 St & 7 Ave S,40.64015,-74.01726
5881,Tyler Ave & Maurice Ave,40.69577,-74.0032
5883,Van Dam St & Greenpoint Ave,40.68135,-74.01198
5886,E 20 St & FDR Dr,40.64539,-74.02341
5887,Queens Blvd & 56 Ave,40.660927,-74.0172
5896,E 17 St & 2 Ave,40.64631,-74.01681
5902,Eagle St & Manhattan Ave,40.638206,-74.01584
5905,Broadway & E 14 St,40.638206,-74.02667
5914,Greenwich Ave & Charles St,40.63239,-74.01722
5917,Bradley Ave & Greenpoint Ave,40.68777,-74.00791
5920,94 St & 57 Ave,40.70831,-73.98258
5922,Bank St & Hudson St,40.636955,-74.02219
5923,51 Ave & 61 St,40.64635,-74.02299
5929,E 23 St & 1 Ave,40.637505,-74.02615
5930,Queens Blvd & Broadway,40.69069,-74.011795
5938,E 16 St & Irving Pl,40.636955,-74.02219
5944,Franklin St & Dupont St,40.64274,-74.0171
5945,60 Ave & Otis Ave,40.73685,-73.97193
5947,E 15 St & 5 Ave,40.63482,-74.01747
5953,97 St & 57 Ave,40.7363,-73.98932
5955,Perry St & Greenwich Ave,40.664845,-74.01712
5956,50 Ave & 65 St,40.67328,-74.017426
5962,56 Ave & 92 St,40.711834,-73.93532
5964,Bank St & Washington St,40.665104,-74.01676
5971,E 20 St & 2 Ave,40.657276,-74.0169
5977,McGuinness Blvd & Eagle St,40.6465,-74.02615
5980,E 17 St & Broadway,40.636955,-74.02341
5983,43 St & 50 Ave,40.668102,-74.01298
5987,99 St & 58 Ave,40.73707,-73.972855
5989,W 15 St & 6 Ave,40.64485,-74.02296
5992,36 St & Hunters Point Ave,40.65333,-74.012405
5995,56 Ave & Junction Blvd,40.736843,-73.867424
5997,W 12 St & Hudson St,40.641422,-74.01735
5998,61 St & Laurel Hill Blvd,40.692272,-73.98966
6001,Borden Ave & Review Ave,40.64803,-74.00941
6004,E 25 St & 1 Ave,40.64745,-74.01889
6005,55 Ave & 90 St,40.708538,-73.959625
6013,Gramercy Park N & Gramercy Park E,40.642796,-74.01638
6014,St James Ave & 51 Ave,40.699287,-74.006645
6016,48 St & 50 Ave,40.65154,-74.01297
6019,Ash St & Manhattan Ave,40.641422,-74.017296
6020,Waldron St & 108 St,40.689373,-73.93169
6022,E 16 St & 5 Ave,40.644722,-74.01722
6025,39 St & 50 Ave,40.6707,-74.013145
6028,57 Ave & 98 Pl,40.660927,-74.00689
6030,W 13 St & 7 Ave,40.637466,-74.02562
6033,31 Pl & Hunters Point Ave,40.70115,-74.01152
6037,53 Ave & 94 St,40.739075,-73.92898
6039,Washington St & Gansevoort St,40.599373,-74.01709
6046,E 25 St & 2 Ave,40.639484,-74.02667
6047,51 Ave & Van Loon St,40.738106,-73.87992
6053,Corona Ave & 111 St,40.688522,-73.97953
6055,E 20 St & Park Ave,40.653328,-74.01438
6056,Queens Blvd & Albion Ave,40.709892,-73.991875
6058,44 St & 48 Ave,40.652927,-74.01298
6062,103 St & Martense Ave,40.73744,-73.93429
6064,W 18 St & 6 Ave,40.646816,-74.017204
6067,48 Ave & 37 St,40.667866,-74.01297
6070,55 Ave & 97 Pl,40.738625,-73.86376
6072,8 Ave & W 16 St,40.642246,-74.02296
6076,30 St & 48 Ave,40.709484,-74.01182
6079,1 Ave & E 30 St,40.646156,-74.02341
6080,90 St & 51 Ave,40.69312,-74.0172
6086,Borden Ave & 25 St,40.73887,-73.98762
6089,E 26 St & 3 Ave,40.6338,-74.021126
6090,South Railroad Ave & Broadway,40.698963,-74.009926
6092,47 Ave & 48 St,40.695942,-74.01194
6096,Van Cleef St & 108 St,40.740223,-73.98582
6098,Broadway & E 19 St,40.639484,-74.02667
6099,76 St & 45 Ave,40.723675,-73.998405
6101,48 Ave & 41 St,40.67306,-74.01688
6104,55 Ave & Center Blvd,40.656296,-74.01186
6105,100 St & Lewis Ave,40.72831,-74.01185
6107,W 17 St & 7 Ave,40.65784,-74.01449
6108,69 St & 43 Ave,40.702908,-74.0084
6110,34 St & 48 Ave,40.694077,-74.001884
6113,51 Ave & Junction Blvd,40.733852,-73.9837
6115,Hudson St & W 13 St,40.63538,-74.025154
6116,61 St & Queens Blvd,40.67328,-74.01038
6119,49 Ave & 27 St,40.696663,-73.94317
6122,2 Ave & 29 St,40.652287,-74.017044
6123,Corona Ave & 90 St,40.70736,-73.9764
6128,49 Ave & 21 St,40.662716,-74.01128
6131,E 24 St & Park Ave S,40.64678,-74.01725
6132,82 St & Broadway,40.699535,-74.00903
6134,44 St & Greenpoint Ave,40.62889,-74.01297
6137,5 St & 51 Ave,40.654984,-74.01073
6138,Martense Ave & 108 St,40.741154,-73.981285
6140,W 21 St & 6 Ave,40.636955,-74.02341
6141,72 St & Woodside Ave,40.65635,-73.99399
6143,36 St & 47 Ave,40.64631,-74.01372
6146,99 St & 50 Ave,40.685608,-73.93129
6148,W 17 St & 8 Ave,40.647213,-74.01618
6149,65 Pl & Woodside Ave,40.671158,-74.01317
6151,47 Ave & 31 St,40.688713,-74.016624
6155,Corona Ave & 92 St,40.74218,-73.89352
6157,10 Ave & W 14 St,40.64734,-74.01691
6158,57 St & 43 Ave,40.6465,-74.02615
6164,Lexington Ave & E 29 St,40.6519,-74.01619
6165,Whitney Ave & Ketcham Pl,40.711834,-73.93532
6167,51 St & Queens Blvd,40.66748,-73.99943
6170,Jackson Ave & 49 Ave,40.645588,-74.02293
6171,111 St & 53 Ave,40.74325,-73.98365
6173,Broadway & W 25 St,40.644978,-74.01563
6174,79 St & Woodside Ave,40.708797,-73.97855
6176,40 St & Queens Blvd,40.59739,-74.01266
6179,Center Blvd & 51 Ave,40.661083,-74.01264
6180,51 Ave & Alstyne Ave,40.742794,-73.85769
6182,W 20 St & 7 Ave,40.639484,-74.02667
6183,Woodside Ave & 69 St,40.67306,-74.00751
6185,33 St & 47 Ave,40.664482,-74.01297
6188,Corona Ave & 98 St,40.72869,-73.98161
6190,9 Ave & W 18 St,40.637466,-74.02562
6191,61 St & Woodside Ave,40.6554,-74.017426
6194,29 St & Skillman Ave,40.67711,-74.01034
6197,2 Ave & E 31 St,40.61622,-74.037506
6198,Forley St & Lamont Ave,40.713528,-73.996635
6200,53 St & Roosevelt Ave,40.662994,-74.01062
6203,Jackson Ave & 46 Rd,40.662716,-74.01177
6206,E 30 St & Park Ave S,40.63912,-74.023
6207,Judge St & Britton Ave,40.70704,-73.99043
6209,43 Ave & 47 St,40.663692,-74.01366
6212,48 Ave & 5 St,40.642593,-74.01325
6213,51 Ave & Corona Ave,40.688522,-73.979706
6215,W 25 St & 6 Ave,40.637505,-74.02296
6216,74 St & Woodside Ave,40.74191,-73.9829
6218,39 St & Queens Blvd,40.661705,-74.01212
6222,Corona Ave & 102 St,40.696095,-73.99199
6224,8 Ave & W 24 St,40.639484,-74.02667
6225,41 Ave & 67 St,40.675182,-74.01191
6227,31 St & Thomson Ave,40.64032,-74.01297
6230,1 Ave & E 38 St,40.640144,-74.02615
6231,46 Ave & Junction Blvd,40.72038,-73.99451
6233,Pier 61 at Chelsea Piers,40.644577,-74.01499
6234,57 St & Woodside Ave,40.65635,-74.01366
6237,47 Ave & Skillman Ave,40.66854,-74.00672
6239,E 31 St & 3 Ave,40.650772,-74.014854
6240,Elmhurst Ave & Forley St,40.69069,-73.98991
6242,51 St & 43 Ave,40.687794,-74.011765
6245,46 Rd & 11 St,40.671913,-74.01202
6247,W 27 St & 7 Ave,40.649876,-74.0172
6248,5 Ave & E 29 St,40.64485,-74.0226
6249,41 Ave & 80 St,40.726837,-73.98944
6251,43 Ave & 42 St,40.668102,-74.01191
6254,Center Blvd & 48 Ave,40.668453,-74.01189
6255,49 Ave & 108 St,40.71021,-73.931
6257,W 24 St & 7 Ave,40.637466,-74.02562
6258,72 St & 41 Ave,40.66872,-74.01251
6260,36 St & Queens Blvd,40.681858,-74.00671
6264,National St & 45 Ave,40.72831,-74.01185
6266,9 Ave & W 22 St,40.652462,-74.01697
6267,65 St & Roosevelt Ave,40.67835,-74.009926
6273,Case St & 94 St,40.708508,-74.0172
6276,Skillman Ave & 54 St,40.65587,-74.011894
6278,44 Dr & 21 St,40.685165,-74.01189
6280,E 32 St & Park Ave,40.642494,-74.01499
6281,Gleane St & Britton Ave,40.72882,-74.01191
6283,48 St & Skillman Ave,40.65154,-74.011734
6286,46 Ave & 5 St,40.646275,-74.02293
6287,111 St & 49 Ave,40.7454,-73.98131
6289,Broadway & W 29 St,40.644577,-74.02615
6290,41 Ave & 77 St,40.693962,-74.01384
6292,43 Ave & 40 St,40.66743,-74.01191
6295,47 Ave & 104 St,40.699287,-73.961754
6297,8 Ave & W 27 St,40.646465,-74.01644
6298,69 St & 38 Ave,40.67819,-74.011955
6300,Skillman Ave & 32 Pl,40.695976,-74.01278
6303,1 Ave & E 39 St,40.649746,-74.01818
6304,98 St & 41 Ave,40.747425,-73.91686
6306,W 20 St & 10 Ave,40.637466,-74.07222
6307,61 St & 39 Ave,40.684853,-74.006645
6310,27 St & Hunter St,40.65014,-74.01192
6313,Lexington Ave & E 36 St,40.64548,-74.01688
6314,Benham St & Roosevelt Ave,40.708847,-74.011314
6316,39 Dr & 52 St,40.67323,-74.011765
6319,11 St & 44 Rd,40.638206,-74.01666
6322,E 33 St & 5 Ave,40.652027,-74.02722
6323,84 St & Roosevelt Ave,40.668262,-74.01201
6325,43 St & Skillman Ave,40.663692,-74.011925
6329,47 Ave & 109 St,40.747044,-73.85519
6331,W 31 St & 7 Ave,40.638306,-74.023
6332,74 St & 37 Ave,40.642593,-74.0172
6334,Skillman Ave & Honeywell St,40.67306,-74.014114
6337,103 St & 41 Ave,40.74057,-73.86833
6339,W 25 St & 9 Ave,40.642643,-74.01804
6340,37 Ave & 63 St,40.642525,-74.0238
6345,E 39 St & 2 Ave,40.67594,-74.0169
6346,Warren St & Roosevelt Ave,40.708145,-74.009926
6349,39 Ave & 56 St,40.668343,-74.00568
6352,44 Dr & Jackson Ave,40.6465,-74.02615
6356,87 St & Roosevelt Ave,40.722244,-74.01204
6358,48 St & Barnett Ave,40.65509,-74.00825
6361,9 St & 44 Rd,40.649464,-74.01222
6364,6 Ave & W 33 St,40.641182,-74.02296
6365,79 St & 37 Ave,40.661182,-74.0172
6371,42 Ave & 108 St,40.7493,-73.9081
6373,W 30 St & 8 Ave,40.640144,-74.015854
6374,71 St & 37 Ave,40.642525,-74.0238
6379,1 Ave & E 44 St,40.638306,-74.02341
6380,39 Ave & 99 St,40.70831,-73.89052
6382,W 26 St & 10 Ave,40.649876,-74.017166
6383,60 St & 37 Ave,40.731133,-73.99516
6389,E 39 St & 3 Ave,40.616703,-74.01697
6390,93 St & Roosevelt Ave,40.70976,-73.931694
6392,39 Ave & 54 St,40.68459,-74.00829
6395,21 St & 43 Ave,40.66327,-74.01203
6398,E 35 St & Madison Ave,40.6492,-74.01719
6399,86 St & 37 Ave,40.68953,-74.01068
6401,39 Ave & 45 St,40.661705,-74.01196
6405,43 Ave & 111 St,40.74332,-73.96078
6407,W 33 St & 7 Ave,40.7502,-73.99093
6408,75 St & 35 Ave,40.688522,-74.01202
6414,Roosevelt Ave & 104 St,40.688522,-74.0169
6416,9 Ave & W 28 St,40.639484,-74.02667
6417,65 St & 35 Ave,40.67835,-74.01136
6422,E 43 St & 2 Ave,40.61622,-74.037506
6423,99 St & 38 Ave,40.725758,-73.96434
6425,11 Ave & W 27 St,40.639484,-74.07222
6426,57 St & 37 Ave,40.7084,-74.01196
6429,Queens Plaza North & Crescent St,40.646275,-74.01275
6432,E 40 St & Park Ave,40.63695,-74.02667
6433,92 St & 37 Ave,40.720776,-73.99443
6435,48 St & 37 Ave,40.65014,-74.011765
6438,11 St & 43 Ave,40.68767,-74.01169
6441,Broadway & W  38 St,40.648052,-74.01675
6442,81 St & 35 Ave,40.642593,-74.01211
6448,111 St & Roosevelt Ave,40.73665,-73.996765
6450,8 Ave & W 31 St,40.644733,-74.01682
6451,34 Ave & 74 St,40.642525,-74.0238
6453,34 St & 38 Ave,40.645496,-74.01194
6457,104 St & 38 Ave,40.696136,-73.983055
6459,10 Ave & W 28 St,40.62367,-74.02562
6460,62 St & 34 Ave,40.684853,-73.98627
6462,28 St & 41 Ave,40.65635,-74.01325
6464,E 44 St & Lexington Ave,40.56315,-74.017296
6465,95 St & 35 Ave,40.74045,-73.99951
6468,54 St & 37 Ave,40.65014,-74.00825
6471,21 St & Queens Plaza North,40.654984,-74.01638
6474,E 40 St & 5 Ave,40.642605,-74.01497
6475,86 St & 35 Ave,40.684982,-74.01233
6483,W 36 St & 7 Ave,40.649155,-74.015884
6486,38 St & Northern Blvd,40.642906,-74.010376
6490,108 St & 39 Ave,40.708145,-73.99882
6492,9 Ave & W 33 St,40.642647,-74.02091
6493,34 Ave & 71 St,40.67819,-74.011314
6495,31 St & Northern Blvd,40.640816,-74.018745
6498,E 47 St & 1 Ave,40.639484,-74.02667
6499,100 St & 37 Ave,40.72831,-74.01185
6502,55 St & Northern Blvd,40.671158,-74.011955
6505,24 St & 41 Ave,40.656933,-74.011765
6509,92 St & 35 Ave,40.672504,-74.012184
6511,50 St & Northern Blvd,40.69608,-74.01191
6514,Vernon Blvd & 41 Rd,40.661705,-74.013145
6515,Mets Plaza at Citi Field,40.68767,-73.996765
6517,W 42 St & 6 Ave,40.646194,-74.01499
6518,34 Ave & 83 St,40.705986,-74.0172
6520,42 Pl & Northern Blvd,40.664482,-74.01198
6524,114 St & 39 Ave,40.7256,-74.011314
6526,8 Ave & W 38 St,40.641663,-74.0172
6527,75 St & Northern Blvd,40.708508,-74.0172
6529,37 Ave & 35 St,40.666092,-74.01197
6532,E 51 St & 1 Ave,40.61622,-74.037506
6533,37 Ave & 106 St,40.67471,-73.96902
6535,W 34 St &	Hudson Blvd E,40.638206,-74.01697
6536,62 St & Northern Blvd,40.650364,-74.011955
6538,38 Ave & 29 St,40.67937,-74.01028
6541,E 48 St & 3 Ave,40.637505,-74.01781
6542,99 St & 35 Ave,40.705986,-73.9588
6545,Broadway & 51 St,40.678757,-74.01195
6551,E 43 St & 5 Ave,40.64032,-74.01722
6552,34 Ave & 89 St,40.68404,-73.98944
6554,34 Ave & 48 St,40.674442,-74.01187
6560,Broadway & W 38 St,40.641182,-74.01747
6561,81 St & 34 Ave,40.66872,-74.012184
6563,35 Ave & 37 St,40.66825,-74.01178
6566,Southpoint Park,40.699352,-74.01297
6567,111 St & 37 Ave,40.7256,-74.011314
6569,W 35 St & 9 Ave,40.64388,-74.01725
6570,72 St & Northern Blvd,40.674316,-74.01538
6572,36 Ave & 31 St,40.656296,-74.01191
6575,E 51 St & 2 Ave,40.652027,-74.014854
6576,102 St & 34 Ave,40.74212,-73.98365
6578,W 34 St & 11 Ave,40.644978,-74.017296
6579,58 St & 32 Ave,40.67708,-74.01165
6581,24 St & 38 Ave,40.67863,-74.01433
6584,E 47 St & Park Ave,40.644436,-74.01496
6585,34 Ave & Junction Blvd,40.696095,-73.99268
6587,Broadway & 49 St,40.70805,-74.011894
6593,6 Ave & 45 St,40.665318,-74.01582
6594,85 St & Northern Blvd,40.71061,-73.994156
6596,34 Ave & 45 St,40.664482,-74.01233
6599,Roosevelt Island Tramway,40.652584,-74.01473
6602,W 41 St & 8 Ave,40.642796,-74.01706
6603,32 Ave & 77 St,40.670326,-74.01193
6605,34 St & 35 Ave,40.66825,-74.01198
6608,E 54 St & 1 Ave,40.642906,-74.01734
6609,34 Ave & 108 St,40.70889,-73.901566
6611,Hudson Blvd E & W 36 St,40.638306,-74.01677
6612,71 St & 32 Ave,40.69381,-74.01196
6614,28 St & 36 Ave,40.669964,-74.00051
6617,E 53 St & 3 Ave,40.638206,-74.01817
6618,100 St & Northern Blvd,40.69069,-73.99499
6621,31 Ave & 57 St,40.69069,-74.011894
6626,E 48 St & 5 Ave,40.642643,-74.01438
6627,93 St & Northern Blvd,40.69783,-74.009926
6629,48 St & Broadway,40.673115,-74.01275
6633,Shea Rd & Boat Basin Pl,40.746338,-73.88317
6636,32 Ave & 84 St,40.72065,-74.00359
6638,34 Ave & 38 St,40.679485,-74.01197
6642,34 Ave & 113 St,40.708145,-73.99882
6644,9 Ave & W 39 St,40.636955,-74.02341
6645,32 Ave & 75 St,40.698963,-73.99654
6650,2 Ave & E 55 St,40.644302,-74.021126
6651,104 St & Northern Blvd,40.74196,-73.971245
6654,31 Ave & 61 St,40.65635,-74.011955
6656,21 St & 38 Ave,40.709785,-74.011086
6659,E 50 St & Park Ave,40.646275,-74.0226
6660,96 St & Northern Blvd,40.673805,-74.01136
6662,49 St & 31 Ave,40.70889,-74.01205
6664,40 Ave & 9 St,40.6465,-74.02615
6667,W 47 St & 6 Ave,40.660145,-74.013916
6668,90 St & 32 Ave,40.709545,-74.011314
6670,43 St & Broadway,40.664482,-74.01325
6676,85,40.640804,-74.01655
6677,32 Ave & 81 St,40.679485,-73.99784
6679,35 St & 34 Ave,40.666092,-74.011955
6682,E 58 St & 1 Ave (NE Corner),40.648098,-74.01666
6683,112 St & Northern Blvd,40.696136,-73.98978
6686,72 St & 31 Ave,40.696106,-73.99121
6688,Crescent St & 35 Ave,40.638206,-74.01186
6691,E 56 St & 3 Ave,40.66483,-74.01706
6692,104 St & 32 Ave,40.745724,-73.94644
6700,W 51 St & Rockefeller Plaza,40.640804,-74.0226
6701,Jackson Mill Rd & 93 St,40.7084,-74.01068
6703,46 St & 30 Rd,40.67937,-74.01202
6708,Broadway	& W 48 St,40.646275,-74.01645
6709,31 Ave & 84 St,40.71179,-74.01233
6711,Steinway St & Broadway,40.642525,-74.0238
6717,9 Ave & W 45 St,40.642605,-74.02341
6718,77 St & 31 Ave,40.69069,-74.01191
6720,34 Ave & 31 St,40.652027,-74.01372
6723,E 58 St &  1 Ave (NW Corner),40.666485,-74.011986
6724,107 St & 32 Ave,40.71021,-73.98978
6726,11 Ave & W 41 St,40.641422,-74.02341
6727,30 Ave & 70 St,40.693962,-74.00825
6729,21 St & 36 Ave,40.66327,-74.00992
6732,E 56 St & Madison Ave,40.642647,-74.02296
6733,99 St & Astoria Blvd,40.671753,-73.98981
6735,50 St & 30 Ave,40.675003,-74.00671
6737,36 Ave & 10 St,40.67323,-74.016495
6740,W 51 St & 6 Ave,40.647007,-74.0226
6741,91 St & 31 Ave,40.720535,-74.01251
6743,Newton Rd & 44 St,40.682663,-74.0169
6747,8 Ave & W 49 St,40.644978,-74.01697
6748,82 St & 30 Ave,40.720352,-74.01212
6750,35 St & Broadway,40.642525,-74.0238
6753,1 Ave & E 62 St,40.646275,-74.016624
6756,W 43 St & 10 Ave,40.64032,-74.01722
6757,73 St & 25 Ave,40.737965,-73.97511
6759,Crescent St & 34 Ave,40.652027,-74.01266
6762,3 Ave & E 62 St,40.642647,-74.02341
6763,31 Ave & 103 St,40.754433,-73.99499
6765,12 Ave & W 40 St,40.639484,-74.02667
6766,Bulova Ave & Brooklyn Queens Expressway W,40.672504,-74.01198
6768,11 St & 35 Ave,40.762745,-73.93912
6771,W 54 St & 6 Ave,40.644733,-74.01695
6772,30 Ave & 96 St,40.760246,-73.98582
6774,30 Ave & 47 St,40.669666,-74.0129
6779,Broadway & W 51 St,40.642494,-74.016685
6780,87 St & 30 Ave,40.725758,-74.011925
6782,31 Ave & Steinway St,40.654984,-74.016624
6786,W 47 St & 9 Ave,40.639484,-74.02667
6787,30 Ave & 80 St,40.74503,-73.99315
6789,31 St & Broadway,40.652584,-74.016624
6793,Ditmars Blvd & 31 Dr,40.76028,-73.94644
6795,W 46 St & 11 Ave,40.646362,-74.02296
6798,34 Ave & 21 St,40.687096,-74.016624
6801,E 59 St & Madison Ave,40.65996,-74.01582
6804,49 St & 25 Ave,40.664482,-74.011894
6806,35 Ave & 10 St,40.683353,-74.012024
6809,W 55 St & 6 Ave,40.64388,-74.017296
6810,92 St & Astoria Blvd,40.69975,-74.00447
6812,30 Ave & 41 St,40.654984,-74.011925
6814,Motorgate,40.654984,-74.01438
6816,8 Ave & W 52 St,40.642643,-74.01706
6817,25 Ave & 85 St,40.709743,-73.99268
6819,31 Ave & 34 St,40.675186,-74.0169
6822,1 Ave & E 68 St,40.636955,-74.02219
6824,W 47 St & 10 Ave,40.638206,-74.01722
6825,77 St & 24 Ave,40.672504,-73.99404
6827,Crescent St & Broadway,40.6523,-74.01584
6830,3 Ave & E 62 St,40.644733,-74.01675
6836,34 Ave & 13 St,40.67901,-74.011986
6839,E 58 St & Madison Ave,40.63826,-74.02296
6840,98 St & 25 Ave,40.725758,-74.012184
6842,46 St & 28 Ave,40.68196,-74.011925
6847,7 Ave & W 55 St,40.641182,-74.01747
6848,88 St & Astoria Blvd,40.719418,-73.99229
6850,38 St & 30 Ave,40.6561,-74.011894
6854,W 50 St & 9 Ave,40.65235,-74.01596
6855,81 St & 24 Ave,40.672504,-73.98785
6857,31 Ave & 30 St,40.672607,-74.011795
6860,E 65 St & 2 Ave,40.642647,-74.02301
6865,21 St & 31 Dr,40.658684,-74.01191
6869,Butler St & 27 Ave,40.725758,-73.988815
6873,34th Ave & Vernon Blvd,40.654984,-74.01372
6876,Central Park S & 6 Ave,40.63826,-74.014885
6877,25 Ave & 96 St,40.708145,-73.99882
6879,28 Ave & 44 St,40.6492,-74.01275
6884,W 56 St & 8 Ave,40.638206,-74.01871
6885,24 Ave & 87 St,40.681858,-73.98554
6887,35 St & 30 Ave,40.62889,-74.01368
6889,E 72 St & York Ave,40.646816,-74.01655
6890,W 50 St & 10 Ave,40.646275,-74.01706
6893,31 Ave & Crescent St,40.652027,-74.01197
6896,E 68 St & 3 Ave,40.660946,-74.01318
6901,Broadway & 12 St,40.6561,-74.01187
6904,5 Ave & E 63 St,40.641182,-74.01747
6905,100 St & Humphreys St,40.69783,-73.98217
6907,46 St & 25 Ave,40.673115,-74.0169
6912,7 Ave & Central Park South,40.673805,-74.02301
6913,24 Ave & 92 St,40.72892,-74.01136
6915,Steinway St & 28 Ave,40.66669,-74.01372
6920,W 54 St & 9 Ave,40.644302,-74.021126
6921,23 Ave & 83 St,40.712727,-74.00447
6923,31 St & Newtown Ave,40.6492,-74.01211
6925,2 Ave & E 72 St,40.645496,-74.02341
6926,W 52 St & 11 Ave,40.645073,-74.01667
6927,Ditmars Blvd & 76 St,40.694588,-74.01186
6929,23 St & 31 Ave,40.666203,-74.01019
6932,E 67 St & Park Ave,40.660362,-74.01373
6935,Ditmars Blvd & 48 St,40.70966,-74.01031
6937,Vernon Blvd & 10 St,40.679497,-74.016495
6941,97 St & 23 Ave,40.720776,-73.99443
6943,25 Ave & 41 St,40.66869,-74.0169
6948,Broadway & W 58 St,40.638306,-74.01499
6949,91 St & 23 Ave,40.69975,-74.009926
6951,28 Ave & 35 St,40.656296,-74.01191
6953,E 74 St & 1 Ave,40.656933,-74.01351
6955,W 54 St & 11 Ave,40.639484,-74.02667
6958,Crescent St & 30 Ave,40.65509,-74.01176
6960,3 Ave & E 71 St,40.6803,-74.01734
6964,Ditmars Blvd & 73 St,40.672607,-74.01372
6966,31 Ave & 14 St,40.652584,-74.0021
6969,E 66 St & Madison Ave,40.672817,-74.01638
6970,Ditmars Blvd & 102 St,40.703888,-74.01198
6978,Ditmars Blvd & 94 St,40.688522,-74.009926
6981,37 St & 24 Ave,40.693375,-74.011795
6986,Columbus Ave & W 59 St,40.69502,-74.01181
6989,31 St & Astoria Blvd,40.656296,-74.01497
6991,E 75 St & 3 Ave,40.680992,-74.0169
6994,Ditmars Blvd & 79 St,40.6561,-74.01186
6996,30 Ave & 21 St,40.65235,-74.0136
6998,E 72 St & Park Ave,40.64501,-74.01638
7003,Vernon Blvd & 30 Rd,40.65509,-74.011955
7009,43 St & 23 Ave,40.676357,-74.011955
7014,Broadway & W 61 St,40.639484,-74.02667
7018,31 St & Hoyt Ave N,40.6561,-74.011314
7020,1 Ave & E 78 St,40.64032,-74.02301
7023,Amsterdam Ave & W 60 St,40.6519,-74.016624
7026,Newtown Ave & 23 St,40.6523,-74.016624
7028,3 Ave & E 72 St,40.649982,-74.01177
7032,76 St & 21 Ave,40.679497,-74.01185
7034,30 Ave & 12 St,40.6492,-74.01584
7039,Ditmars Ave & 43 St,40.672504,-74.00798
7047,35 St & 23 Ave,40.660313,-73.99891
7049,E 82 St & East End Ave,40.65959,-74.01334
7052,W 63 St & Broadway,40.63538,-74.025154
7057,E 78 St & 2 Ave,40.669983,-74.016235
7059,11 Ave & W 59 St,40.638206,-74.07222
